[
  {
    "id": "np_anamudi_shola_np",
    "name": "Anamudi Shola NP",
    "category": "np",
    "state": [
      "Kerala"
    ],
    "area_km2": 7.5,
    "centroid_lat": 10.2009,
    "centroid_lng": 77.194,
    "hasBoundary": true
  },
  {
    "id": "np_anshi_np",
    "name": "Anshi NP",
    "category": "np",
    "state": [
      "Karnataka"
    ],
    "area_km2": 417.3,
    "centroid_lat": 15.0169,
    "centroid_lng": 74.3906,
    "hasBoundary": true
  },
  {
    "id": "np_balphakram_np",
    "name": "Balphakram NP",
    "category": "np",
    "state": [
      "Meghalaya"
    ],
    "area_km2": 220,
    "centroid_lat": 25.2806,
    "centroid_lng": 90.7712,
    "hasBoundary": true
  },
  {
    "id": "np_bandhavgarh_np",
    "name": "Bandhavgarh NP",
    "category": "np",
    "state": [
      "Madhya Pradesh"
    ],
    "area_km2": 448.8,
    "centroid_lat": 23.6347,
    "centroid_lng": 81.0143,
    "hasBoundary": true
  },
  {
    "id": "np_bandipur_np",
    "name": "Bandipur NP",
    "category": "np",
    "state": [
      "Karnataka"
    ],
    "area_km2": 872.2,
    "centroid_lat": 11.7132,
    "centroid_lng": 76.5367,
    "hasBoundary": true
  },
  {
    "id": "np_bannerghatta_np",
    "name": "Bannerghatta NP",
    "category": "np",
    "state": [
      "Karnataka"
    ],
    "area_km2": 260.5,
    "centroid_lat": 12.5637,
    "centroid_lng": 77.5759,
    "hasBoundary": true
  },
  {
    "id": "np_betla_np",
    "name": "Betla NP",
    "category": "np",
    "state": [
      "Jharkhand"
    ],
    "area_km2": 226.3,
    "centroid_lat": 23.6211,
    "centroid_lng": 84.047,
    "hasBoundary": true
  },
  {
    "id": "np_bhagwan_mahavir_np",
    "name": "Bhagwan Mahavir NP",
    "category": "np",
    "state": [
      "Goa"
    ],
    "area_km2": 107,
    "centroid_lat": 15.4234,
    "centroid_lng": 74.224,
    "hasBoundary": true
  },
  {
    "id": "np_bhitarkanika_np",
    "name": "Bhitarkanika NP",
    "category": "np",
    "state": [
      "Odisha"
    ],
    "area_km2": 145,
    "centroid_lat": 20.652,
    "centroid_lng": 86.9181,
    "hasBoundary": true
  },
  {
    "id": "np_bison_np",
    "name": "Bison NP",
    "category": "np",
    "state": [
      "Tripura"
    ],
    "area_km2": 31.6,
    "centroid_lat": 23.2741,
    "centroid_lng": 91.3743,
    "hasBoundary": true
  },
  {
    "id": "np_blackbuck_np",
    "name": "Blackbuck NP",
    "category": "np",
    "state": [
      "Gujarat"
    ],
    "area_km2": 34.5,
    "centroid_lat": 22.0447,
    "centroid_lng": 72.0519,
    "hasBoundary": true
  },
  {
    "id": "np_buxa_np",
    "name": "Buxa NP",
    "category": "np",
    "state": [
      "West Bengal"
    ],
    "area_km2": 117.1,
    "centroid_lat": 26.6225,
    "centroid_lng": 89.5442,
    "hasBoundary": true
  },
  {
    "id": "np_campbell_bay_np",
    "name": "Campbell Bay NP",
    "category": "np",
    "state": [
      "Andaman & Nicobar Islands"
    ],
    "area_km2": 426.2,
    "centroid_lat": 7.0687,
    "centroid_lng": 93.7864,
    "hasBoundary": true
  },
  {
    "id": "np_chandoli_np",
    "name": "Chandoli NP",
    "category": "np",
    "state": [
      "Maharashtra"
    ],
    "area_km2": 317.7,
    "centroid_lat": 17.1815,
    "centroid_lng": 73.7622,
    "hasBoundary": true
  },
  {
    "id": "np_city_forest_np",
    "name": "City Forest NP",
    "category": "np",
    "state": [
      "Jammu & Kashmir"
    ],
    "area_km2": 9.1,
    "centroid_lat": 34.081,
    "centroid_lng": 74.8461,
    "hasBoundary": true
  },
  {
    "id": "np_clouded_leopard_np",
    "name": "Clouded Leopard NP",
    "category": "np",
    "state": [
      "Tripura"
    ],
    "area_km2": 5.1,
    "centroid_lat": 23.6707,
    "centroid_lng": 91.3202,
    "hasBoundary": true
  },
  {
    "id": "np_corbett_np",
    "name": "Corbett NP",
    "category": "np",
    "state": [
      "Uttarakhand"
    ],
    "area_km2": 520.8,
    "centroid_lat": 29.6047,
    "centroid_lng": 78.8597,
    "hasBoundary": true
  },
  {
    "id": "np_dachigam_np",
    "name": "Dachigam NP",
    "category": "np",
    "state": [
      "Jammu & Kashmir"
    ],
    "area_km2": 141,
    "centroid_lat": 34.129,
    "centroid_lng": 75.0279,
    "hasBoundary": true
  },
  {
    "id": "np_dehing_patkai_np",
    "name": "Dehing Patkai NP",
    "category": "np",
    "state": [
      "Assam"
    ],
    "area_km2": 234.3,
    "centroid_lat": 27.3358,
    "centroid_lng": 95.5008,
    "hasBoundary": true
  },
  {
    "id": "np_desert_np",
    "name": "Desert NP",
    "category": "np",
    "state": [
      "Rajasthan"
    ],
    "area_km2": 3162,
    "centroid_lat": 26.3272,
    "centroid_lng": 70.556,
    "hasBoundary": true
  },
  {
    "id": "np_dibru_saikhowa_np",
    "name": "Dibru Saikhowa NP",
    "category": "np",
    "state": [
      "Assam"
    ],
    "area_km2": 340,
    "centroid_lat": 27.6746,
    "centroid_lng": 95.381,
    "hasBoundary": true
  },
  {
    "id": "np_dinosaur_fossil_np",
    "name": "Dinosaur Fossil NP",
    "category": "np",
    "state": [
      "Madhya Pradesh"
    ],
    "area_km2": 0.9,
    "centroid_lat": 22.342,
    "centroid_lng": 74.784,
    "hasBoundary": true
  },
  {
    "id": "np_dudhwa_np",
    "name": "Dudhwa NP",
    "category": "np",
    "state": [
      "Uttar Pradesh"
    ],
    "area_km2": 490,
    "centroid_lat": 28.5255,
    "centroid_lng": 80.637,
    "hasBoundary": true
  },
  {
    "id": "np_eravikulam_np",
    "name": "Eravikulam NP",
    "category": "np",
    "state": [
      "Kerala"
    ],
    "area_km2": 97,
    "centroid_lat": 10.2234,
    "centroid_lng": 77.0626,
    "hasBoundary": true
  },
  {
    "id": "np_fossil_np",
    "name": "Fossil NP",
    "category": "np",
    "state": [
      "Madhya Pradesh"
    ],
    "area_km2": 0.3,
    "centroid_lat": 23.1138,
    "centroid_lng": 80.6142,
    "hasBoundary": true
  },
  {
    "id": "np_galathea_np",
    "name": "Galathea NP",
    "category": "np",
    "state": [
      "Andaman & Nicobar Islands"
    ],
    "area_km2": 110,
    "centroid_lat": 6.9268,
    "centroid_lng": 93.8394,
    "hasBoundary": true
  },
  {
    "id": "np_gangotri_np",
    "name": "Gangotri NP",
    "category": "np",
    "state": [
      "Uttarakhand"
    ],
    "area_km2": 2390,
    "centroid_lat": 31.029,
    "centroid_lng": 79.1188,
    "hasBoundary": true
  },
  {
    "id": "np_gir_np",
    "name": "Gir NP",
    "category": "np",
    "state": [
      "Gujarat"
    ],
    "area_km2": 258.7,
    "centroid_lat": 21.1203,
    "centroid_lng": 70.774,
    "hasBoundary": true
  },
  {
    "id": "np_gorumara_np",
    "name": "Gorumara NP",
    "category": "np",
    "state": [
      "West Bengal"
    ],
    "area_km2": 79.5,
    "centroid_lat": 26.7646,
    "centroid_lng": 88.8298,
    "hasBoundary": true
  },
  {
    "id": "np_govind_np",
    "name": "Govind NP",
    "category": "np",
    "state": [
      "Uttarakhand"
    ],
    "area_km2": 472.1,
    "centroid_lat": 31.167,
    "centroid_lng": 78.247,
    "hasBoundary": true
  },
  {
    "id": "np_great_himalayan_national_park",
    "name": "Great Himalayan National Park",
    "category": "np",
    "state": [
      "Himachal Pradesh"
    ],
    "area_km2": 754.4,
    "centroid_lat": 31.799,
    "centroid_lng": 77.5514,
    "hasBoundary": true
  },
  {
    "id": "np_gugamal_np",
    "name": "Gugamal NP",
    "category": "np",
    "state": [
      "Maharashtra"
    ],
    "area_km2": 361.3,
    "centroid_lat": 21.3661,
    "centroid_lng": 77.1005,
    "hasBoundary": true
  },
  {
    "id": "np_guindy_np",
    "name": "Guindy NP",
    "category": "np",
    "state": [
      "Tamil Nadu"
    ],
    "area_km2": 2.7,
    "centroid_lat": 12.999,
    "centroid_lng": 80.2267,
    "hasBoundary": true
  },
  {
    "id": "np_gulf_of_mannar_marine_np",
    "name": "Gulf of Mannar Marine NP",
    "category": "np",
    "state": [
      "Tamil Nadu"
    ],
    "area_km2": 526,
    "centroid_lat": 9.1271,
    "centroid_lng": 78.8025,
    "hasBoundary": true
  },
  {
    "id": "np_guru_ghasidas_sanjay_np",
    "name": "Guru Ghasidas (Sanjay) NP",
    "category": "np",
    "state": [
      "Chhattisgarh"
    ],
    "area_km2": 1440.7,
    "centroid_lat": 23.7503,
    "centroid_lng": 82.1645,
    "hasBoundary": true
  },
  {
    "id": "np_hemis_np",
    "name": "Hemis NP",
    "category": "np",
    "state": [
      "Ladakh"
    ],
    "area_km2": 3350,
    "centroid_lat": 33.8512,
    "centroid_lng": 77.343,
    "hasBoundary": true
  },
  {
    "id": "np_inderkilla_national_park",
    "name": "Inderkilla National Park",
    "category": "np",
    "state": [
      "Himachal Pradesh"
    ],
    "area_km2": 94,
    "centroid_lat": 32.2581,
    "centroid_lng": 77.3196,
    "hasBoundary": true
  },
  {
    "id": "np_indira_gandhi_annamalai_np",
    "name": "Indira Gandhi (Annamalai) NP",
    "category": "np",
    "state": [
      "Tamil Nadu"
    ],
    "area_km2": 117.1,
    "centroid_lat": 10.3239,
    "centroid_lng": 77.2726,
    "hasBoundary": true
  },
  {
    "id": "np_indravati_np",
    "name": "Indravati NP",
    "category": "np",
    "state": [
      "Chhattisgarh"
    ],
    "area_km2": 1258.4,
    "centroid_lat": 19.0959,
    "centroid_lng": 80.6973,
    "hasBoundary": true
  },
  {
    "id": "np_intanki_np",
    "name": "Intanki NP",
    "category": "np",
    "state": [
      "Nagaland"
    ],
    "area_km2": 202,
    "centroid_lat": 25.591,
    "centroid_lng": 93.453,
    "hasBoundary": true
  },
  {
    "id": "np_jaldapara_np",
    "name": "Jaldapara NP",
    "category": "np",
    "state": [
      "West Bengal"
    ],
    "area_km2": 216.3,
    "centroid_lat": 26.6725,
    "centroid_lng": 89.3265,
    "hasBoundary": true
  },
  {
    "id": "np_kalesar_np",
    "name": "Kalesar NP",
    "category": "np",
    "state": [
      "Haryana"
    ],
    "area_km2": 46.8,
    "centroid_lat": 30.3944,
    "centroid_lng": 77.5342,
    "hasBoundary": true
  },
  {
    "id": "np_kanger_ghati_np",
    "name": "Kanger Ghati NP",
    "category": "np",
    "state": [
      "Chhattisgarh"
    ],
    "area_km2": 200,
    "centroid_lat": 18.7999,
    "centroid_lng": 82.0608,
    "hasBoundary": true
  },
  {
    "id": "np_kanha_np",
    "name": "Kanha NP",
    "category": "np",
    "state": [
      "Madhya Pradesh"
    ],
    "area_km2": 941.8,
    "centroid_lat": 22.1464,
    "centroid_lng": 80.9438,
    "hasBoundary": true
  },
  {
    "id": "np_kasu_brahmananda_reddy_np",
    "name": "Kasu Brahmananda Reddy NP",
    "category": "np",
    "state": [
      "Telangana"
    ],
    "area_km2": 1.4,
    "centroid_lat": 17.4185,
    "centroid_lng": 78.4202,
    "hasBoundary": true
  },
  {
    "id": "np_kazinag",
    "name": "Kazinag",
    "category": "np",
    "state": [
      "Jammu & Kashmir"
    ],
    "area_km2": 90.9,
    "centroid_lat": 34.178,
    "centroid_lng": 74.3491,
    "hasBoundary": true
  },
  {
    "id": "np_kaziranga_np",
    "name": "Kaziranga NP",
    "category": "np",
    "state": [
      "Assam"
    ],
    "area_km2": 859,
    "centroid_lat": 26.6271,
    "centroid_lng": 93.324,
    "hasBoundary": true
  },
  {
    "id": "np_keibul_lamjao_np",
    "name": "Keibul-Lamjao NP",
    "category": "np",
    "state": [
      "Manipur"
    ],
    "area_km2": 40,
    "centroid_lat": 24.4851,
    "centroid_lng": 93.8363,
    "hasBoundary": true
  },
  {
    "id": "np_keoladeo_ghana_np",
    "name": "Keoladeo Ghana NP",
    "category": "np",
    "state": [
      "Rajasthan"
    ],
    "area_km2": 28.7,
    "centroid_lat": 27.169,
    "centroid_lng": 77.5164,
    "hasBoundary": true
  },
  {
    "id": "np_khangchendzonga_np",
    "name": "Khangchendzonga NP",
    "category": "np",
    "state": [
      "Sikkim"
    ],
    "area_km2": 1784,
    "centroid_lat": 27.6756,
    "centroid_lng": 88.3198,
    "hasBoundary": true
  },
  {
    "id": "np_khirganga_national_park",
    "name": "Khirganga National Park",
    "category": "np",
    "state": [
      "Himachal Pradesh"
    ],
    "area_km2": 705,
    "centroid_lat": 32.012,
    "centroid_lng": 77.6026,
    "hasBoundary": true
  },
  {
    "id": "np_kishtwar_np",
    "name": "Kishtwar NP",
    "category": "np",
    "state": [
      "Jammu & Kashmir"
    ],
    "area_km2": 2191.5,
    "centroid_lat": 33.5459,
    "centroid_lng": 75.9993,
    "hasBoundary": true
  },
  {
    "id": "np_kudremukh_np",
    "name": "Kudremukh NP",
    "category": "np",
    "state": [
      "Karnataka"
    ],
    "area_km2": 600.6,
    "centroid_lat": 13.2793,
    "centroid_lng": 75.1496,
    "hasBoundary": true
  },
  {
    "id": "np_kuno_np",
    "name": "Kuno NP",
    "category": "np",
    "state": [
      "Madhya Pradesh"
    ],
    "area_km2": 748.8,
    "centroid_lat": 25.759,
    "centroid_lng": 77.1957,
    "hasBoundary": true
  },
  {
    "id": "np_madhav_np",
    "name": "Madhav NP",
    "category": "np",
    "state": [
      "Madhya Pradesh"
    ],
    "area_km2": 375.2,
    "centroid_lat": 25.5061,
    "centroid_lng": 77.7609,
    "hasBoundary": true
  },
  {
    "id": "np_mahatma_gandhi_marine_wandoor_np",
    "name": "Mahatma Gandhi Marine (Wandoor) NP",
    "category": "np",
    "state": [
      "Andaman & Nicobar Islands"
    ],
    "area_km2": 281.5,
    "centroid_lat": 11.5825,
    "centroid_lng": 92.5475,
    "hasBoundary": true
  },
  {
    "id": "np_mahaveer_harina_vanasthali_np",
    "name": "Mahaveer Harina Vanasthali NP",
    "category": "np",
    "state": [
      "Telangana"
    ],
    "area_km2": 14.6,
    "centroid_lat": 17.371,
    "centroid_lng": 78.6096,
    "hasBoundary": true
  },
  {
    "id": "np_manas_np",
    "name": "Manas NP",
    "category": "np",
    "state": [
      "Assam"
    ],
    "area_km2": 500,
    "centroid_lat": 26.7418,
    "centroid_lng": 90.9433,
    "hasBoundary": true
  },
  {
    "id": "np_marine_gulf_of_kachchh_np",
    "name": "Marine (Gulf of Kachchh) NP",
    "category": "np",
    "state": [
      "Gujarat"
    ],
    "area_km2": 162.9,
    "centroid_lat": 22.4835,
    "centroid_lng": 69.8215,
    "hasBoundary": true
  },
  {
    "id": "np_mathikettan_shola_np",
    "name": "Mathikettan Shola NP",
    "category": "np",
    "state": [
      "Kerala"
    ],
    "area_km2": 12.8,
    "centroid_lat": 9.9805,
    "centroid_lng": 77.2562,
    "hasBoundary": true
  },
  {
    "id": "np_mouling_np",
    "name": "Mouling NP",
    "category": "np",
    "state": [
      "Arunachal Pradesh"
    ],
    "area_km2": 483,
    "centroid_lat": 28.5898,
    "centroid_lng": 94.8289,
    "hasBoundary": true
  },
  {
    "id": "np_mount_harriett_np",
    "name": "Mount Harriett NP",
    "category": "np",
    "state": [
      "Andaman & Nicobar Islands"
    ],
    "area_km2": 46.6,
    "centroid_lat": 11.7871,
    "centroid_lng": 92.7656,
    "hasBoundary": true
  },
  {
    "id": "np_mrugavani_np",
    "name": "Mrugavani NP",
    "category": "np",
    "state": [
      "Telangana"
    ],
    "area_km2": 3.6,
    "centroid_lat": 17.3581,
    "centroid_lng": 78.3441,
    "hasBoundary": true
  },
  {
    "id": "np_mudumalai_np",
    "name": "Mudumalai NP",
    "category": "np",
    "state": [
      "Tamil Nadu"
    ],
    "area_km2": 103.2,
    "centroid_lat": 11.6391,
    "centroid_lng": 76.4831,
    "hasBoundary": true
  },
  {
    "id": "np_mukundra_hills_np",
    "name": "Mukundra Hills NP",
    "category": "np",
    "state": [
      "Rajasthan"
    ],
    "area_km2": 200.5,
    "centroid_lat": 24.7462,
    "centroid_lng": 76.1013,
    "hasBoundary": true
  },
  {
    "id": "np_mukurthi_np",
    "name": "Mukurthi NP",
    "category": "np",
    "state": [
      "Tamil Nadu"
    ],
    "area_km2": 78.5,
    "centroid_lat": 11.3058,
    "centroid_lng": 76.5258,
    "hasBoundary": true
  },
  {
    "id": "np_murlen_np",
    "name": "Murlen NP",
    "category": "np",
    "state": [
      "Mizoram"
    ],
    "area_km2": 100,
    "centroid_lat": 23.6026,
    "centroid_lng": 93.288,
    "hasBoundary": true
  },
  {
    "id": "np_namdapha_np",
    "name": "Namdapha NP",
    "category": "np",
    "state": [
      "Arunachal Pradesh"
    ],
    "area_km2": 1807.8,
    "centroid_lat": 27.439,
    "centroid_lng": 96.5656,
    "hasBoundary": true
  },
  {
    "id": "np_nameri",
    "name": "Nameri",
    "category": "np",
    "state": [
      "Assam"
    ],
    "area_km2": 200,
    "centroid_lat": 26.9353,
    "centroid_lng": 92.8355,
    "hasBoundary": true
  },
  {
    "id": "np_nanda_devi_np",
    "name": "Nanda Devi NP",
    "category": "np",
    "state": [
      "Uttarakhand"
    ],
    "area_km2": 624.6,
    "centroid_lat": 30.4142,
    "centroid_lng": 79.873,
    "hasBoundary": true
  },
  {
    "id": "np_nawegaon_np",
    "name": "Nawegaon NP",
    "category": "np",
    "state": [
      "Maharashtra"
    ],
    "area_km2": 133.9,
    "centroid_lat": 20.9417,
    "centroid_lng": 80.1695,
    "hasBoundary": true
  },
  {
    "id": "np_neora_valley_np",
    "name": "Neora Valley NP",
    "category": "np",
    "state": [
      "West Bengal"
    ],
    "area_km2": 159.9,
    "centroid_lat": 27.1168,
    "centroid_lng": 88.7638,
    "hasBoundary": true
  },
  {
    "id": "np_nokrek_ridge_np",
    "name": "Nokrek Ridge NP",
    "category": "np",
    "state": [
      "Meghalaya"
    ],
    "area_km2": 47.5,
    "centroid_lat": 25.4678,
    "centroid_lng": 90.3709,
    "hasBoundary": true
  },
  {
    "id": "np_orang_np",
    "name": "Orang NP",
    "category": "np",
    "state": [
      "Assam"
    ],
    "area_km2": 78.8,
    "centroid_lat": 26.5491,
    "centroid_lng": 92.3275,
    "hasBoundary": true
  },
  {
    "id": "np_pambadum_shola_np",
    "name": "Pambadum Shola NP",
    "category": "np",
    "state": [
      "Kerala"
    ],
    "area_km2": 1.3,
    "centroid_lat": 10.1171,
    "centroid_lng": 77.2557,
    "hasBoundary": true
  },
  {
    "id": "np_panna_np",
    "name": "Panna NP",
    "category": "np",
    "state": [
      "Madhya Pradesh"
    ],
    "area_km2": 542.7,
    "centroid_lat": 24.6293,
    "centroid_lng": 79.9173,
    "hasBoundary": true
  },
  {
    "id": "np_papikonda_np",
    "name": "Papikonda NP",
    "category": "np",
    "state": [
      "Andhra Pradesh"
    ],
    "area_km2": 1012.9,
    "centroid_lat": 17.5357,
    "centroid_lng": 81.4827,
    "hasBoundary": true
  },
  {
    "id": "np_pench_jawaharlal_nehru",
    "name": "Pench (Jawaharlal Nehru)",
    "category": "np",
    "state": [
      "Maharashtra"
    ],
    "area_km2": 257.3,
    "centroid_lat": 21.6767,
    "centroid_lng": 79.2538,
    "hasBoundary": true
  },
  {
    "id": "np_pench_priyadarshni_np",
    "name": "Pench (Priyadarshni) NP",
    "category": "np",
    "state": [
      "Madhya Pradesh"
    ],
    "area_km2": 292.9,
    "centroid_lat": 21.7064,
    "centroid_lng": 79.2573,
    "hasBoundary": true
  },
  {
    "id": "np_periyar_np",
    "name": "Periyar NP",
    "category": "np",
    "state": [
      "Kerala"
    ],
    "area_km2": 350,
    "centroid_lat": 9.4677,
    "centroid_lng": 77.0599,
    "hasBoundary": true
  },
  {
    "id": "np_phawngpui_blue_mountain_np",
    "name": "Phawngpui Blue Mountain NP",
    "category": "np",
    "state": [
      "Mizoram"
    ],
    "area_km2": 50,
    "centroid_lat": 22.6542,
    "centroid_lng": 93.0401,
    "hasBoundary": true
  },
  {
    "id": "np_pin_valley_national_park",
    "name": "Pin Valley National Park",
    "category": "np",
    "state": [
      "Himachal Pradesh"
    ],
    "area_km2": 675,
    "centroid_lat": 31.9774,
    "centroid_lng": 77.8777,
    "hasBoundary": true
  },
  {
    "id": "np_raimona_np",
    "name": "Raimona NP",
    "category": "np",
    "state": [
      "Assam"
    ],
    "area_km2": 422,
    "centroid_lat": 26.7352,
    "centroid_lng": 90.0789,
    "hasBoundary": true
  },
  {
    "id": "np_rajaji_np",
    "name": "Rajaji NP",
    "category": "np",
    "state": [
      "Uttarakhand"
    ],
    "area_km2": 820,
    "centroid_lat": 30.0714,
    "centroid_lng": 78.1885,
    "hasBoundary": true
  },
  {
    "id": "np_rajiv_gandhi_nagarahole_np",
    "name": "Rajiv Gandhi (Nagarahole) NP",
    "category": "np",
    "state": [
      "Karnataka"
    ],
    "area_km2": 643.4,
    "centroid_lat": 12.0465,
    "centroid_lng": 76.1519,
    "hasBoundary": true
  },
  {
    "id": "np_rajiv_gandhi_rameswaram",
    "name": "Rajiv Gandhi (Rameswaram)",
    "category": "np",
    "state": [
      "Andhra Pradesh"
    ],
    "area_km2": 2.4,
    "centroid_lat": 14.7268,
    "centroid_lng": 78.5609,
    "hasBoundary": true
  },
  {
    "id": "np_rani_jhansi_marine_np",
    "name": "Rani Jhansi Marine NP",
    "category": "np",
    "state": [
      "Andaman & Nicobar Islands"
    ],
    "area_km2": 320.1,
    "centroid_lat": 12.1658,
    "centroid_lng": 93.0625,
    "hasBoundary": true
  },
  {
    "id": "np_ranthambhore_np",
    "name": "Ranthambhore NP",
    "category": "np",
    "state": [
      "Rajasthan"
    ],
    "area_km2": 282,
    "centroid_lat": 26.0634,
    "centroid_lng": 76.5239,
    "hasBoundary": true
  },
  {
    "id": "np_saddle_peak_np",
    "name": "Saddle Peak NP",
    "category": "np",
    "state": [
      "Andaman & Nicobar Islands"
    ],
    "area_km2": 32.5,
    "centroid_lat": 13.1618,
    "centroid_lng": 93.0234,
    "hasBoundary": true
  },
  {
    "id": "np_sanjay_gandhi_borivilli_np",
    "name": "Sanjay Gandhi (Borivilli) NP",
    "category": "np",
    "state": [
      "Maharashtra"
    ],
    "area_km2": 87,
    "centroid_lat": 19.2326,
    "centroid_lng": 72.9235,
    "hasBoundary": true
  },
  {
    "id": "np_sanjay_np",
    "name": "Sanjay NP",
    "category": "np",
    "state": [
      "Madhya Pradesh"
    ],
    "area_km2": 464.6,
    "centroid_lat": 23.8913,
    "centroid_lng": 82.0345,
    "hasBoundary": true
  },
  {
    "id": "np_sariska_np",
    "name": "Sariska NP",
    "category": "np",
    "state": [
      "Rajasthan"
    ],
    "area_km2": 273.8,
    "centroid_lat": 27.2034,
    "centroid_lng": 76.3655,
    "hasBoundary": true
  },
  {
    "id": "np_satpura_np",
    "name": "Satpura NP",
    "category": "np",
    "state": [
      "Madhya Pradesh"
    ],
    "area_km2": 528.7,
    "centroid_lat": 22.4634,
    "centroid_lng": 78.3575,
    "hasBoundary": true
  },
  {
    "id": "np_shirui_np_sirohi_np",
    "name": "Shirui NP (Sirohi NP)",
    "category": "np",
    "state": [
      "Manipur"
    ],
    "area_km2": 100,
    "centroid_lat": 25.1007,
    "centroid_lng": 94.4453,
    "hasBoundary": true
  },
  {
    "id": "np_sikhna_jwhwlao_np",
    "name": "Sikhna Jwhwlao NP",
    "category": "np",
    "state": [
      "Assam"
    ],
    "area_km2": 316.3,
    "centroid_lat": 26.717,
    "centroid_lng": 90.4922,
    "hasBoundary": true
  },
  {
    "id": "np_silent_valley_np",
    "name": "Silent Valley NP",
    "category": "np",
    "state": [
      "Kerala"
    ],
    "area_km2": 89.5,
    "centroid_lat": 11.1462,
    "centroid_lng": 76.4372,
    "hasBoundary": true
  },
  {
    "id": "np_sim_balbara_national_park",
    "name": "Sim Balbara National Park",
    "category": "np",
    "state": [
      "Himachal Pradesh"
    ],
    "area_km2": 27.9,
    "centroid_lat": 30.4361,
    "centroid_lng": 77.5177,
    "hasBoundary": true
  },
  {
    "id": "np_simlipal_np",
    "name": "Simlipal NP",
    "category": "np",
    "state": [
      "Odisha"
    ],
    "area_km2": 845.7,
    "centroid_lat": 21.6443,
    "centroid_lng": 86.257,
    "hasBoundary": true
  },
  {
    "id": "np_singalila_np",
    "name": "Singalila NP",
    "category": "np",
    "state": [
      "West Bengal"
    ],
    "area_km2": 78.6,
    "centroid_lat": 27.1738,
    "centroid_lng": 88.03,
    "hasBoundary": true
  },
  {
    "id": "np_sri_venkateswara_np",
    "name": "Sri Venkateswara NP",
    "category": "np",
    "state": [
      "Andhra Pradesh"
    ],
    "area_km2": 353.6,
    "centroid_lat": 13.7022,
    "centroid_lng": 79.3723,
    "hasBoundary": true
  },
  {
    "id": "np_sultanpur_np",
    "name": "Sultanpur NP",
    "category": "np",
    "state": [
      "Haryana"
    ],
    "area_km2": 1.4,
    "centroid_lat": 28.4619,
    "centroid_lng": 76.8898,
    "hasBoundary": true
  },
  {
    "id": "np_sunderban_np",
    "name": "Sunderban NP",
    "category": "np",
    "state": [
      "West Bengal"
    ],
    "area_km2": 1330.1,
    "centroid_lat": 21.8769,
    "centroid_lng": 88.9252,
    "hasBoundary": true
  },
  {
    "id": "np_tadoba_np",
    "name": "Tadoba NP",
    "category": "np",
    "state": [
      "Maharashtra"
    ],
    "area_km2": 116.6,
    "centroid_lat": 20.1252,
    "centroid_lng": 79.3695,
    "hasBoundary": true
  },
  {
    "id": "np_valley_of_flowers_np",
    "name": "Valley of Flowers NP",
    "category": "np",
    "state": [
      "Uttarakhand"
    ],
    "area_km2": 87.5,
    "centroid_lat": 30.7362,
    "centroid_lng": 79.6291,
    "hasBoundary": true
  },
  {
    "id": "np_valmiki_np",
    "name": "Valmiki NP",
    "category": "np",
    "state": [
      "Bihar"
    ],
    "area_km2": 335.7,
    "centroid_lat": 27.3413,
    "centroid_lng": 83.9931,
    "hasBoundary": true
  },
  {
    "id": "np_van_vihar_np",
    "name": "Van Vihar NP",
    "category": "np",
    "state": [
      "Madhya Pradesh"
    ],
    "area_km2": 4.5,
    "centroid_lat": 23.2316,
    "centroid_lng": 77.3669,
    "hasBoundary": true
  },
  {
    "id": "np_vansda_np",
    "name": "Vansda NP",
    "category": "np",
    "state": [
      "Gujarat"
    ],
    "area_km2": 24,
    "centroid_lat": 20.7824,
    "centroid_lng": 73.4501,
    "hasBoundary": true
  },
  {
    "id": "ws_abohar_wls",
    "name": "Abohar WLS",
    "category": "wls",
    "state": [
      "Punjab"
    ],
    "area_km2": 186.5,
    "centroid_lat": 30.0386,
    "centroid_lng": 74.3121,
    "hasBoundary": true
  },
  {
    "id": "ws_abubshehar_wls",
    "name": "Abubshehar WLS",
    "category": "wls",
    "state": [
      "Haryana"
    ],
    "area_km2": 115.3,
    "centroid_lat": 29.8117,
    "centroid_lng": 74.5898,
    "hasBoundary": true
  },
  {
    "id": "ws_achanakmar_wls",
    "name": "Achanakmar WLS",
    "category": "wls",
    "state": [
      "Chhattisgarh"
    ],
    "area_km2": 551.6,
    "centroid_lat": 22.4812,
    "centroid_lng": 81.7414,
    "hasBoundary": true
  },
  {
    "id": "ws_adichunchunagiri_peacock_wls",
    "name": "Adichunchunagiri Peacock WLS",
    "category": "wls",
    "state": [
      "Karnataka"
    ],
    "area_km2": 0.8,
    "centroid_lat": 13.0154,
    "centroid_lng": 76.7509,
    "hasBoundary": true
  },
  {
    "id": "ws_amba_barwa_wls",
    "name": "Amba Barwa WLS",
    "category": "wls",
    "state": [
      "Maharashtra"
    ],
    "area_km2": 127.1,
    "centroid_lat": 21.2393,
    "centroid_lng": 76.6637,
    "hasBoundary": true
  },
  {
    "id": "ws_amchang_wls",
    "name": "Amchang WLS",
    "category": "wls",
    "state": [
      "Assam"
    ],
    "area_km2": 78.6,
    "centroid_lat": 26.1734,
    "centroid_lng": 91.9144,
    "hasBoundary": true
  },
  {
    "id": "ws_amrabad_nagarjunasagar_srisailam_wls",
    "name": "Amrabad (Nagarjunasagar-Srisailam) WLS",
    "category": "wls",
    "state": [
      "Telangana"
    ],
    "area_km2": 2166.4,
    "centroid_lat": 16.3688,
    "centroid_lng": 79.0383,
    "hasBoundary": true
  },
  {
    "id": "ws_andhari_wls",
    "name": "Andhari WLS",
    "category": "wls",
    "state": [
      "Maharashtra"
    ],
    "area_km2": 509.3,
    "centroid_lat": 20.245,
    "centroid_lng": 79.4129,
    "hasBoundary": true
  },
  {
    "id": "ws_aner_dam_wls",
    "name": "Aner Dam WLS",
    "category": "wls",
    "state": [
      "Maharashtra"
    ],
    "area_km2": 82.9,
    "centroid_lat": 21.3536,
    "centroid_lng": 75.0504,
    "hasBoundary": true
  },
  {
    "id": "ws_arabithittu_wls",
    "name": "Arabithittu WLS",
    "category": "wls",
    "state": [
      "Karnataka"
    ],
    "area_km2": 13.5,
    "centroid_lat": 12.3219,
    "centroid_lng": 76.4045,
    "hasBoundary": true
  },
  {
    "id": "ws_aralam_wls",
    "name": "Aralam WLS",
    "category": "wls",
    "state": [
      "Kerala"
    ],
    "area_km2": 55,
    "centroid_lat": 11.948,
    "centroid_lng": 75.8671,
    "hasBoundary": true
  },
  {
    "id": "ws_arial_island_wls",
    "name": "Arial Island WLS",
    "category": "wls",
    "state": [
      "Andaman & Nicobar Islands"
    ],
    "area_km2": 0.1,
    "centroid_lat": 12.1496,
    "centroid_lng": 92.8452,
    "hasBoundary": true
  },
  {
    "id": "ws_askot_musk_deer_wls",
    "name": "Askot Musk Deer WLS",
    "category": "wls",
    "state": [
      "Uttarakhand"
    ],
    "area_km2": 600,
    "centroid_lat": 29.924,
    "centroid_lng": 80.4425,
    "hasBoundary": true
  },
  {
    "id": "ws_asola_bhati_indira_priyadarshini_wls",
    "name": "Asola Bhati (Indira Priyadarshini) WLS",
    "category": "wls",
    "state": [
      "Delhi"
    ],
    "area_km2": 19.6,
    "centroid_lat": 28.4657,
    "centroid_lng": 77.2277,
    "hasBoundary": true
  },
  {
    "id": "ws_attiveri_bird_wls",
    "name": "Attiveri Bird WLS",
    "category": "wls",
    "state": [
      "Karnataka"
    ],
    "area_km2": 2.2,
    "centroid_lat": 15.0779,
    "centroid_lng": 75.0421,
    "hasBoundary": true
  },
  {
    "id": "ws_badalkhol_wls",
    "name": "Badalkhol WLS",
    "category": "wls",
    "state": [
      "Chhattisgarh"
    ],
    "area_km2": 104.5,
    "centroid_lat": 22.9212,
    "centroid_lng": 83.8355,
    "hasBoundary": true
  },
  {
    "id": "ws_badrama_wls",
    "name": "Badrama WLS",
    "category": "wls",
    "state": [
      "Odisha"
    ],
    "area_km2": 304,
    "centroid_lat": 21.4464,
    "centroid_lng": 84.3836,
    "hasBoundary": true
  },
  {
    "id": "ws_bagdara_wls",
    "name": "Bagdara WLS",
    "category": "wls",
    "state": [
      "Madhya Pradesh"
    ],
    "area_km2": 478,
    "centroid_lat": 24.6188,
    "centroid_lng": 82.5755,
    "hasBoundary": true
  },
  {
    "id": "ws_baghmara_pitcher_plant_wls",
    "name": "Baghmara Pitcher Plant WLS",
    "category": "wls",
    "state": [
      "Meghalaya"
    ],
    "area_km2": 0,
    "centroid_lat": 25.1984,
    "centroid_lng": 90.6386,
    "hasBoundary": true
  },
  {
    "id": "ws_baisipalli_wls",
    "name": "Baisipalli WLS",
    "category": "wls",
    "state": [
      "Odisha"
    ],
    "area_km2": 168.4,
    "centroid_lat": 20.4611,
    "centroid_lng": 84.7286,
    "hasBoundary": true
  },
  {
    "id": "ws_bakhira_wls",
    "name": "Bakhira WLS",
    "category": "wls",
    "state": [
      "Uttar Pradesh"
    ],
    "area_km2": 28.9,
    "centroid_lat": 26.9019,
    "centroid_lng": 83.1454,
    "hasBoundary": true
  },
  {
    "id": "ws_balaram_ambaji_wls",
    "name": "Balaram Ambaji WLS",
    "category": "wls",
    "state": [
      "Gujarat"
    ],
    "area_km2": 542.1,
    "centroid_lat": 24.2962,
    "centroid_lng": 72.7745,
    "hasBoundary": true
  },
  {
    "id": "ws_ballavpur_wls",
    "name": "Ballavpur WLS",
    "category": "wls",
    "state": [
      "West Bengal"
    ],
    "area_km2": 2,
    "centroid_lat": 23.684,
    "centroid_lng": 87.6711,
    "hasBoundary": true
  },
  {
    "id": "ws_baltas_thajwas_wls",
    "name": "Baltas-Thajwas WLS",
    "category": "wls",
    "state": [
      "Jammu & Kashmir"
    ],
    "area_km2": 210.5,
    "centroid_lat": 34.2094,
    "centroid_lng": 75.3772,
    "hasBoundary": true
  },
  {
    "id": "ws_balukhand_konark_wls",
    "name": "Balukhand Konark WLS",
    "category": "wls",
    "state": [
      "Odisha"
    ],
    "area_km2": 71.7,
    "centroid_lat": 19.8648,
    "centroid_lng": 86.0603,
    "hasBoundary": true
  },
  {
    "id": "ws_bamboo_island_wls",
    "name": "Bamboo Island WLS",
    "category": "wls",
    "state": [
      "Andaman & Nicobar Islands"
    ],
    "area_km2": 0.1,
    "centroid_lat": 13.0514,
    "centroid_lng": 92.9331,
    "hasBoundary": true
  },
  {
    "id": "ws_bandh_baratha_wls",
    "name": "Bandh Baratha WLS",
    "category": "wls",
    "state": [
      "Rajasthan"
    ],
    "area_km2": 199.5,
    "centroid_lat": 26.8469,
    "centroid_lng": 77.4073,
    "hasBoundary": true
  },
  {
    "id": "ws_bandli_wls",
    "name": "Bandli WLS",
    "category": "wls",
    "state": [
      "Himachal Pradesh"
    ],
    "area_km2": 32.1,
    "centroid_lat": 31.4422,
    "centroid_lng": 76.9062,
    "hasBoundary": true
  },
  {
    "id": "ws_barail_wls",
    "name": "Barail WLS",
    "category": "wls",
    "state": [
      "Assam"
    ],
    "area_km2": 326.2,
    "centroid_lat": 25.0694,
    "centroid_lng": 92.5327,
    "hasBoundary": true
  },
  {
    "id": "ws_barda_wls",
    "name": "Barda WLS",
    "category": "wls",
    "state": [
      "Gujarat"
    ],
    "area_km2": 192.3,
    "centroid_lat": 21.7931,
    "centroid_lng": 69.7526,
    "hasBoundary": true
  },
  {
    "id": "ws_barela_s_a_z_s_wls",
    "name": "Barela S.A.Z.S. WLS",
    "category": "wls",
    "state": [
      "Bihar"
    ],
    "area_km2": 2,
    "centroid_lat": 25.7666,
    "centroid_lng": 85.557,
    "hasBoundary": true
  },
  {
    "id": "ws_barnadi_wls",
    "name": "Barnadi WLS",
    "category": "wls",
    "state": [
      "Assam"
    ],
    "area_km2": 26.2,
    "centroid_lat": 26.8385,
    "centroid_lng": 91.8068,
    "hasBoundary": true
  },
  {
    "id": "ws_barnawapara_wls",
    "name": "Barnawapara WLS",
    "category": "wls",
    "state": [
      "Chhattisgarh"
    ],
    "area_km2": 244.7,
    "centroid_lat": 21.3991,
    "centroid_lng": 82.4562,
    "hasBoundary": true
  },
  {
    "id": "ws_barren_island_wls",
    "name": "Barren Island WLS",
    "category": "wls",
    "state": [
      "Andaman & Nicobar Islands"
    ],
    "area_km2": 8.1,
    "centroid_lat": 12.2806,
    "centroid_lng": 93.8597,
    "hasBoundary": true
  },
  {
    "id": "ws_barsey_rhododendron_wls",
    "name": "Barsey Rhododendron WLS",
    "category": "wls",
    "state": [
      "Sikkim"
    ],
    "area_km2": 104,
    "centroid_lat": 27.2233,
    "centroid_lng": 88.0736,
    "hasBoundary": true
  },
  {
    "id": "ws_bassi_wls",
    "name": "Bassi WLS",
    "category": "wls",
    "state": [
      "Rajasthan"
    ],
    "area_km2": 138.7,
    "centroid_lat": 24.9895,
    "centroid_lng": 74.8672,
    "hasBoundary": true
  },
  {
    "id": "ws_battimalv_island_wls",
    "name": "Battimalv Island WLS",
    "category": "wls",
    "state": [
      "Andaman & Nicobar Islands"
    ],
    "area_km2": 2.2,
    "centroid_lat": 8.8272,
    "centroid_lng": 92.8563,
    "hasBoundary": true
  },
  {
    "id": "ws_belle_island_wls",
    "name": "Belle Island WLS",
    "category": "wls",
    "state": [
      "Andaman & Nicobar Islands"
    ],
    "area_km2": 0.1,
    "centroid_lat": 12.1115,
    "centroid_lng": 92.7411,
    "hasBoundary": true
  },
  {
    "id": "ws_benett_island_wls",
    "name": "Benett Island WLS",
    "category": "wls",
    "state": [
      "Andaman & Nicobar Islands"
    ],
    "area_km2": 3.5,
    "centroid_lat": 12.851,
    "centroid_lng": 92.7188,
    "hasBoundary": true
  },
  {
    "id": "ws_bethuadahari_wls",
    "name": "Bethuadahari WLS",
    "category": "wls",
    "state": [
      "West Bengal"
    ],
    "area_km2": 0.7,
    "centroid_lat": 23.5807,
    "centroid_lng": 88.4024,
    "hasBoundary": true
  },
  {
    "id": "ws_bhadra_wls",
    "name": "Bhadra WLS",
    "category": "wls",
    "state": [
      "Karnataka"
    ],
    "area_km2": 500.2,
    "centroid_lat": 13.5983,
    "centroid_lng": 75.5931,
    "hasBoundary": true
  },
  {
    "id": "ws_bhagwan_mahavir_wls",
    "name": "Bhagwan Mahavir WLS",
    "category": "wls",
    "state": [
      "Goa"
    ],
    "area_km2": 133,
    "centroid_lat": 15.259,
    "centroid_lng": 74.2439,
    "hasBoundary": true
  },
  {
    "id": "ws_bhairamgarh_wls",
    "name": "Bhairamgarh WLS",
    "category": "wls",
    "state": [
      "Chhattisgarh"
    ],
    "area_km2": 139,
    "centroid_lat": 19.0935,
    "centroid_lng": 80.96,
    "hasBoundary": true
  },
  {
    "id": "ws_bhamragarh_wls",
    "name": "Bhamragarh WLS",
    "category": "wls",
    "state": [
      "Maharashtra"
    ],
    "area_km2": 104.4,
    "centroid_lat": 19.5697,
    "centroid_lng": 80.7772,
    "hasBoundary": true
  },
  {
    "id": "ws_bhensrodgarh_wls",
    "name": "Bhensrodgarh WLS",
    "category": "wls",
    "state": [
      "Rajasthan"
    ],
    "area_km2": 229.1,
    "centroid_lat": 24.8812,
    "centroid_lng": 75.5224,
    "hasBoundary": true
  },
  {
    "id": "ws_bherjan_borajan_podumoni_wls",
    "name": "Bherjan-Borajan-Podumoni WLS",
    "category": "wls",
    "state": [
      "Assam"
    ],
    "area_km2": 7.2,
    "centroid_lat": 27.4749,
    "centroid_lng": 95.3597,
    "hasBoundary": true
  },
  {
    "id": "ws_bhimashankar_wls",
    "name": "Bhimashankar WLS",
    "category": "wls",
    "state": [
      "Maharashtra"
    ],
    "area_km2": 130.8,
    "centroid_lat": 19.0693,
    "centroid_lng": 73.549,
    "hasBoundary": true
  },
  {
    "id": "ws_bhimbandh_wls",
    "name": "Bhimbandh WLS",
    "category": "wls",
    "state": [
      "Bihar"
    ],
    "area_km2": 682,
    "centroid_lat": 25.1298,
    "centroid_lng": 86.3993,
    "hasBoundary": true
  },
  {
    "id": "ws_bhimgad_wls",
    "name": "Bhimgad WLS",
    "category": "wls",
    "state": [
      "Karnataka"
    ],
    "area_km2": 190.4,
    "centroid_lat": 15.5747,
    "centroid_lng": 74.29,
    "hasBoundary": true
  },
  {
    "id": "ws_bhindawas_wls",
    "name": "Bhindawas WLS",
    "category": "wls",
    "state": [
      "Haryana"
    ],
    "area_km2": 4.1,
    "centroid_lat": 28.564,
    "centroid_lng": 76.5275,
    "hasBoundary": true
  },
  {
    "id": "ws_bhitarkanika_wls",
    "name": "Bhitarkanika WLS",
    "category": "wls",
    "state": [
      "Odisha"
    ],
    "area_km2": 525,
    "centroid_lat": 20.6448,
    "centroid_lng": 86.8472,
    "hasBoundary": true
  },
  {
    "id": "ws_bhoramdev_wls",
    "name": "Bhoramdev WLS",
    "category": "wls",
    "state": [
      "Chhattisgarh"
    ],
    "area_km2": 351.2,
    "centroid_lat": 22.1324,
    "centroid_lng": 81.0042,
    "hasBoundary": true
  },
  {
    "id": "ws_bibhutibhusan_wls",
    "name": "Bibhutibhusan WLS",
    "category": "wls",
    "state": [
      "West Bengal"
    ],
    "area_km2": 0.6,
    "centroid_lat": 23.1856,
    "centroid_lng": 88.7613,
    "hasBoundary": true
  },
  {
    "id": "ws_biligiri_rangaswamy_temple_wls",
    "name": "Biligiri Rangaswamy Temple WLS",
    "category": "wls",
    "state": [
      "Karnataka"
    ],
    "area_km2": 539.5,
    "centroid_lat": 11.8221,
    "centroid_lng": 77.1317,
    "hasBoundary": true
  },
  {
    "id": "ws_bingham_island_wls",
    "name": "Bingham Island WLS",
    "category": "wls",
    "state": [
      "Andaman & Nicobar Islands"
    ],
    "area_km2": 0.1,
    "centroid_lat": 12.2552,
    "centroid_lng": 92.7234,
    "hasBoundary": true
  },
  {
    "id": "ws_binsar_wls",
    "name": "Binsar WLS",
    "category": "wls",
    "state": [
      "Uttarakhand"
    ],
    "area_km2": 47.1,
    "centroid_lat": 29.7089,
    "centroid_lng": 79.7563,
    "hasBoundary": true
  },
  {
    "id": "ws_bir_aishvan_wls",
    "name": "Bir Aishvan WLS",
    "category": "wls",
    "state": [
      "Punjab"
    ],
    "area_km2": 2.6,
    "centroid_lat": 30.225,
    "centroid_lng": 75.8825,
    "hasBoundary": true
  },
  {
    "id": "ws_bir_bhadson_wls",
    "name": "Bir Bhadson WLS",
    "category": "wls",
    "state": [
      "Punjab"
    ],
    "area_km2": 10.2,
    "centroid_lat": 30.5027,
    "centroid_lng": 76.1991,
    "hasBoundary": true
  },
  {
    "id": "ws_bir_bunerheri_wls",
    "name": "Bir Bunerheri WLS",
    "category": "wls",
    "state": [
      "Punjab"
    ],
    "area_km2": 6.6,
    "centroid_lat": 30.1902,
    "centroid_lng": 76.4659,
    "hasBoundary": true
  },
  {
    "id": "ws_bir_dosanjh_wls",
    "name": "Bir Dosanjh WLS",
    "category": "wls",
    "state": [
      "Punjab"
    ],
    "area_km2": 5.2,
    "centroid_lat": 30.4292,
    "centroid_lng": 76.1468,
    "hasBoundary": true
  },
  {
    "id": "ws_bir_gurdialpura_wls",
    "name": "Bir Gurdialpura WLS",
    "category": "wls",
    "state": [
      "Punjab"
    ],
    "area_km2": 6.2,
    "centroid_lat": 30.0462,
    "centroid_lng": 76.2098,
    "hasBoundary": true
  },
  {
    "id": "ws_bir_mehaswala_wls",
    "name": "Bir Mehaswala WLS",
    "category": "wls",
    "state": [
      "Punjab"
    ],
    "area_km2": 1.2,
    "centroid_lat": 30.367,
    "centroid_lng": 76.1664,
    "hasBoundary": true
  },
  {
    "id": "ws_bir_motibagh_wls",
    "name": "Bir Motibagh WLS",
    "category": "wls",
    "state": [
      "Punjab"
    ],
    "area_km2": 6.5,
    "centroid_lat": 30.2917,
    "centroid_lng": 76.4014,
    "hasBoundary": true
  },
  {
    "id": "ws_bir_shikargarh_wls",
    "name": "Bir Shikargarh WLS",
    "category": "wls",
    "state": [
      "Haryana"
    ],
    "area_km2": 7.7,
    "centroid_lat": 30.7698,
    "centroid_lng": 76.9683,
    "hasBoundary": true
  },
  {
    "id": "ws_blister_island_wls",
    "name": "Blister Island WLS",
    "category": "wls",
    "state": [
      "Andaman & Nicobar Islands"
    ],
    "area_km2": 0.3,
    "centroid_lat": 13.0435,
    "centroid_lng": 92.9169,
    "hasBoundary": true
  },
  {
    "id": "ws_bluff_island_wls",
    "name": "Bluff Island WLS",
    "category": "wls",
    "state": [
      "Andaman & Nicobar Islands"
    ],
    "area_km2": 1.1,
    "centroid_lat": 12.2471,
    "centroid_lng": 92.6984,
    "hasBoundary": true
  },
  {
    "id": "ws_bondla_wls",
    "name": "Bondla WLS",
    "category": "wls",
    "state": [
      "Goa"
    ],
    "area_km2": 8,
    "centroid_lat": 15.4375,
    "centroid_lng": 74.1045,
    "hasBoundary": true
  },
  {
    "id": "ws_bondoville_island_wls",
    "name": "Bondoville Island WLS",
    "category": "wls",
    "state": [
      "Andaman & Nicobar Islands"
    ],
    "area_km2": 2.6,
    "centroid_lat": 12.9066,
    "centroid_lng": 92.7548,
    "hasBoundary": true
  },
  {
    "id": "ws_bor_wls",
    "name": "Bor WLS",
    "category": "wls",
    "state": [
      "Maharashtra"
    ],
    "area_km2": 61.1,
    "centroid_lat": 20.9922,
    "centroid_lng": 78.7216,
    "hasBoundary": true
  },
  {
    "id": "ws_bori_wls",
    "name": "Bori WLS",
    "category": "wls",
    "state": [
      "Madhya Pradesh"
    ],
    "area_km2": 485.7,
    "centroid_lat": 22.3802,
    "centroid_lng": 78.0224,
    "hasBoundary": true
  },
  {
    "id": "ws_brahmagiri_wls",
    "name": "Brahmagiri WLS",
    "category": "wls",
    "state": [
      "Karnataka"
    ],
    "area_km2": 181.3,
    "centroid_lat": 12.0196,
    "centroid_lng": 75.8735,
    "hasBoundary": true
  },
  {
    "id": "ws_brush_island_wls",
    "name": "Brush Island WLS",
    "category": "wls",
    "state": [
      "Andaman & Nicobar Islands"
    ],
    "area_km2": 0.2,
    "centroid_lat": 13.2942,
    "centroid_lng": 93.0495,
    "hasBoundary": true
  },
  {
    "id": "ws_buchanan_island_wls",
    "name": "Buchanan Island WLS",
    "category": "wls",
    "state": [
      "Andaman & Nicobar Islands"
    ],
    "area_km2": 9.3,
    "centroid_lat": 12.9061,
    "centroid_lng": 92.7866,
    "hasBoundary": true
  },
  {
    "id": "ws_bukkapatna",
    "name": "Bukkapatna",
    "category": "wls",
    "state": [
      "Karnataka"
    ],
    "area_km2": 136.1,
    "centroid_lat": 13.6341,
    "centroid_lng": 76.7055,
    "hasBoundary": true
  },
  {
    "id": "ws_bunning",
    "name": "Bunning",
    "category": "wls",
    "state": [
      "Manipur"
    ],
    "area_km2": 115.8,
    "centroid_lat": 25.1542,
    "centroid_lng": 93.612,
    "hasBoundary": true
  },
  {
    "id": "ws_burachapori_wls",
    "name": "Burachapori WLS",
    "category": "wls",
    "state": [
      "Assam"
    ],
    "area_km2": 44.1,
    "centroid_lat": 26.5353,
    "centroid_lng": 92.707,
    "hasBoundary": true
  },
  {
    "id": "ws_buxa_wls",
    "name": "Buxa WLS",
    "category": "wls",
    "state": [
      "West Bengal"
    ],
    "area_km2": 251.9,
    "centroid_lat": 26.7021,
    "centroid_lng": 89.6563,
    "hasBoundary": true
  },
  {
    "id": "ws_cauvery_north_wls",
    "name": "Cauvery North WLS",
    "category": "wls",
    "state": [
      "Tamil Nadu"
    ],
    "area_km2": 504.3,
    "centroid_lat": 12.3538,
    "centroid_lng": 77.6948,
    "hasBoundary": true
  },
  {
    "id": "ws_cauvery_wls",
    "name": "Cauvery WLS",
    "category": "wls",
    "state": [
      "Karnataka"
    ],
    "area_km2": 1027.5,
    "centroid_lat": 12.2103,
    "centroid_lng": 77.5358,
    "hasBoundary": true
  },
  {
    "id": "ws_chail_wls",
    "name": "Chail WLS",
    "category": "wls",
    "state": [
      "Himachal Pradesh"
    ],
    "area_km2": 16,
    "centroid_lat": 30.9629,
    "centroid_lng": 77.2008,
    "hasBoundary": true
  },
  {
    "id": "ws_chakrashila_wls",
    "name": "Chakrashila WLS",
    "category": "wls",
    "state": [
      "Assam"
    ],
    "area_km2": 45.6,
    "centroid_lat": 26.333,
    "centroid_lng": 90.3257,
    "hasBoundary": true
  },
  {
    "id": "ws_chandaka_dampara_wls",
    "name": "Chandaka Dampara WLS",
    "category": "wls",
    "state": [
      "Odisha"
    ],
    "area_km2": 175.8,
    "centroid_lat": 20.3252,
    "centroid_lng": 85.6779,
    "hasBoundary": true
  },
  {
    "id": "ws_chandartal_wls",
    "name": "Chandartal WLS",
    "category": "wls",
    "state": [
      "Himachal Pradesh"
    ],
    "area_km2": 38.6,
    "centroid_lat": 32.4552,
    "centroid_lng": 77.6519,
    "hasBoundary": true
  },
  {
    "id": "ws_chandraprabha_wls",
    "name": "Chandraprabha WLS",
    "category": "wls",
    "state": [
      "Uttar Pradesh"
    ],
    "area_km2": 78,
    "centroid_lat": 24.9419,
    "centroid_lng": 83.1313,
    "hasBoundary": true
  },
  {
    "id": "ws_chanel_island_wls",
    "name": "Chanel Island WLS",
    "category": "wls",
    "state": [
      "Andaman & Nicobar Islands"
    ],
    "area_km2": 0.1,
    "centroid_lat": 13.6622,
    "centroid_lng": 93.0309,
    "hasBoundary": true
  },
  {
    "id": "ws_changthang_wls",
    "name": "Changthang WLS",
    "category": "wls",
    "state": [
      "Ladakh"
    ],
    "area_km2": 4000,
    "centroid_lat": 33.4821,
    "centroid_lng": 78.7962,
    "hasBoundary": true
  },
  {
    "id": "ws_chaprala_wls",
    "name": "Chaprala WLS",
    "category": "wls",
    "state": [
      "Maharashtra"
    ],
    "area_km2": 134.8,
    "centroid_lat": 19.6442,
    "centroid_lng": 79.8567,
    "hasBoundary": true
  },
  {
    "id": "ws_chapramari_wls",
    "name": "Chapramari WLS",
    "category": "wls",
    "state": [
      "West Bengal"
    ],
    "area_km2": 9.6,
    "centroid_lat": 26.9141,
    "centroid_lng": 88.837,
    "hasBoundary": true
  },
  {
    "id": "ws_chhilchila_wls",
    "name": "Chhilchila WLS",
    "category": "wls",
    "state": [
      "Haryana"
    ],
    "area_km2": 0.3,
    "centroid_lat": 29.9382,
    "centroid_lng": 76.681,
    "hasBoundary": true
  },
  {
    "id": "ws_chilika_nalaban_wls",
    "name": "Chilika (Nalaban) WLS",
    "category": "wls",
    "state": [
      "Odisha"
    ],
    "area_km2": 15.5,
    "centroid_lat": 19.6791,
    "centroid_lng": 85.3262,
    "hasBoundary": true
  },
  {
    "id": "ws_chimmony_wls",
    "name": "Chimmony WLS",
    "category": "wls",
    "state": [
      "Kerala"
    ],
    "area_km2": 85,
    "centroid_lat": 10.4424,
    "centroid_lng": 76.4694,
    "hasBoundary": true
  },
  {
    "id": "ws_chincholi_wls",
    "name": "Chincholi WLS",
    "category": "wls",
    "state": [
      "Karnataka"
    ],
    "area_km2": 134.9,
    "centroid_lat": 17.5153,
    "centroid_lng": 77.4907,
    "hasBoundary": true
  },
  {
    "id": "ws_chinnar_wls",
    "name": "Chinnar WLS",
    "category": "wls",
    "state": [
      "Kerala"
    ],
    "area_km2": 90.4,
    "centroid_lat": 10.3138,
    "centroid_lng": 77.2003,
    "hasBoundary": true
  },
  {
    "id": "ws_chintamani_kar_bird_wls",
    "name": "Chintamani Kar Bird WLS",
    "category": "wls",
    "state": [
      "West Bengal"
    ],
    "area_km2": 0.1,
    "centroid_lat": 21.8504,
    "centroid_lng": 88.6209,
    "hasBoundary": true
  },
  {
    "id": "ws_chitrangudi_wls",
    "name": "Chitrangudi WLS",
    "category": "wls",
    "state": [
      "Tamil Nadu"
    ],
    "area_km2": 0.5,
    "centroid_lat": 9.3365,
    "centroid_lng": 78.4804,
    "hasBoundary": true
  },
  {
    "id": "ws_chorao_island_dr_salim_ali_wls",
    "name": "Chorao Island (Dr. Salim Ali) WLS",
    "category": "wls",
    "state": [
      "Goa"
    ],
    "area_km2": 1.8,
    "centroid_lat": 15.5143,
    "centroid_lng": 73.8566,
    "hasBoundary": true
  },
  {
    "id": "ws_chulannur_peafowl_wls",
    "name": "Chulannur Peafowl WLS",
    "category": "wls",
    "state": [
      "Kerala"
    ],
    "area_km2": 3.4,
    "centroid_lat": 10.7222,
    "centroid_lng": 76.4819,
    "hasBoundary": true
  },
  {
    "id": "ws_churdhar_wls",
    "name": "Churdhar WLS",
    "category": "wls",
    "state": [
      "Himachal Pradesh"
    ],
    "area_km2": 55.5,
    "centroid_lat": 30.8576,
    "centroid_lng": 77.4535,
    "hasBoundary": true
  },
  {
    "id": "ws_cinque_island_wls",
    "name": "Cinque Island WLS",
    "category": "wls",
    "state": [
      "Andaman & Nicobar Islands"
    ],
    "area_km2": 9.5,
    "centroid_lat": 11.2916,
    "centroid_lng": 92.7062,
    "hasBoundary": true
  },
  {
    "id": "ws_city_bird_wildlife_sanctuary",
    "name": "City Bird Wildlife Sanctuary",
    "category": "wls",
    "state": [
      "Chandigarh"
    ],
    "area_km2": 0,
    "centroid_lat": 30.7289,
    "centroid_lng": 76.7798,
    "hasBoundary": true
  },
  {
    "id": "ws_clyde_island_wls",
    "name": "Clyde Island WLS",
    "category": "wls",
    "state": [
      "Andaman & Nicobar Islands"
    ],
    "area_km2": 0.5,
    "centroid_lat": 11.9119,
    "centroid_lng": 92.5983,
    "hasBoundary": true
  },
  {
    "id": "ws_cone_island_wls",
    "name": "Cone Island WLS",
    "category": "wls",
    "state": [
      "Andaman & Nicobar Islands"
    ],
    "area_km2": 0.7,
    "centroid_lat": 12.4167,
    "centroid_lng": 92.8643,
    "hasBoundary": true
  },
  {
    "id": "ws_coringa_wls",
    "name": "Coringa WLS",
    "category": "wls",
    "state": [
      "Andhra Pradesh"
    ],
    "area_km2": 235.7,
    "centroid_lat": 16.8388,
    "centroid_lng": 82.3131,
    "hasBoundary": true
  },
  {
    "id": "ws_cotigaon_wls",
    "name": "Cotigaon WLS",
    "category": "wls",
    "state": [
      "Goa"
    ],
    "area_km2": 85.7,
    "centroid_lat": 14.9917,
    "centroid_lng": 74.2033,
    "hasBoundary": true
  },
  {
    "id": "ws_curlew_b_p_island_wls",
    "name": "Curlew (B.P.) Island WLS",
    "category": "wls",
    "state": [
      "Andaman & Nicobar Islands"
    ],
    "area_km2": 0.2,
    "centroid_lat": 12.9368,
    "centroid_lng": 92.891,
    "hasBoundary": true
  },
  {
    "id": "ws_curlew_island_wls",
    "name": "Curlew Island WLS",
    "category": "wls",
    "state": [
      "Andaman & Nicobar Islands"
    ],
    "area_km2": 0,
    "centroid_lat": 13.0301,
    "centroid_lng": 92.9299,
    "hasBoundary": true
  },
  {
    "id": "ws_cuthbert_bay_wls",
    "name": "Cuthbert Bay WLS",
    "category": "wls",
    "state": [
      "Andaman & Nicobar Islands"
    ],
    "area_km2": 5.8,
    "centroid_lat": 12.7117,
    "centroid_lng": 92.9691,
    "hasBoundary": true
  },
  {
    "id": "ws_d_ering_memorial_lali_wls",
    "name": "D' Ering Memorial (Lali) WLS",
    "category": "wls",
    "state": [
      "Arunachal Pradesh"
    ],
    "area_km2": 190,
    "centroid_lat": 27.9267,
    "centroid_lng": 95.4302,
    "hasBoundary": true
  },
  {
    "id": "ws_dadra_nagar_haveli_wls",
    "name": "Dadra & Nagar Haveli WLS",
    "category": "wls",
    "state": [
      "Dadra & Nagar Haveli and Daman & Diu"
    ],
    "area_km2": 92.2,
    "centroid_lat": 20.2848,
    "centroid_lng": 73.0953,
    "hasBoundary": true
  },
  {
    "id": "ws_dalma_wls",
    "name": "Dalma WLS",
    "category": "wls",
    "state": [
      "Jharkhand"
    ],
    "area_km2": 193.2,
    "centroid_lat": 22.8876,
    "centroid_lng": 86.2119,
    "hasBoundary": true
  },
  {
    "id": "ws_dampa_wls",
    "name": "Dampa WLS",
    "category": "wls",
    "state": [
      "Mizoram"
    ],
    "area_km2": 545,
    "centroid_lat": 23.5638,
    "centroid_lng": 92.357,
    "hasBoundary": true
  },
  {
    "id": "ws_dandeli_wls",
    "name": "Dandeli WLS",
    "category": "wls",
    "state": [
      "Karnataka"
    ],
    "area_km2": 886.4,
    "centroid_lat": 15.0466,
    "centroid_lng": 74.6078,
    "hasBoundary": true
  },
  {
    "id": "ws_daranghati_wls",
    "name": "Daranghati WLS",
    "category": "wls",
    "state": [
      "Himachal Pradesh"
    ],
    "area_km2": 171.5,
    "centroid_lat": 31.4114,
    "centroid_lng": 77.8283,
    "hasBoundary": true
  },
  {
    "id": "ws_darlaghat_wls",
    "name": "Darlaghat WLS",
    "category": "wls",
    "state": [
      "Himachal Pradesh"
    ],
    "area_km2": 6,
    "centroid_lat": 31.2002,
    "centroid_lng": 76.8949,
    "hasBoundary": true
  },
  {
    "id": "ws_daroji_bear_wls",
    "name": "Daroji Bear WLS",
    "category": "wls",
    "state": [
      "Karnataka"
    ],
    "area_km2": 82.7,
    "centroid_lat": 15.3002,
    "centroid_lng": 76.5733,
    "hasBoundary": true
  },
  {
    "id": "ws_darrah_wls",
    "name": "Darrah WLS",
    "category": "wls",
    "state": [
      "Rajasthan"
    ],
    "area_km2": 80.8,
    "centroid_lat": 24.9196,
    "centroid_lng": 75.8047,
    "hasBoundary": true
  },
  {
    "id": "ws_debrigarh_wls",
    "name": "Debrigarh WLS",
    "category": "wls",
    "state": [
      "Odisha"
    ],
    "area_km2": 346.9,
    "centroid_lat": 21.5909,
    "centroid_lng": 83.6998,
    "hasBoundary": true
  },
  {
    "id": "ws_deepar_beel_wls",
    "name": "Deepar Beel WLS",
    "category": "wls",
    "state": [
      "Assam"
    ],
    "area_km2": 4.1,
    "centroid_lat": 26.1273,
    "centroid_lng": 91.6415,
    "hasBoundary": true
  },
  {
    "id": "ws_defence_island_wls",
    "name": "Defence Island WLS",
    "category": "wls",
    "state": [
      "Andaman & Nicobar Islands"
    ],
    "area_km2": 10.5,
    "centroid_lat": 11.9517,
    "centroid_lng": 92.5987,
    "hasBoundary": true
  },
  {
    "id": "ws_deolgaon_rehkuri_wls",
    "name": "Deolgaon-Rehkuri WLS",
    "category": "wls",
    "state": [
      "Maharashtra"
    ],
    "area_km2": 2.2,
    "centroid_lat": 18.5924,
    "centroid_lng": 74.9823,
    "hasBoundary": true
  },
  {
    "id": "ws_dhauladhar_wls",
    "name": "Dhauladhar WLS",
    "category": "wls",
    "state": [
      "Himachal Pradesh"
    ],
    "area_km2": 982.9,
    "centroid_lat": 32.1702,
    "centroid_lng": 76.8174,
    "hasBoundary": true
  },
  {
    "id": "ws_dhyanganga_wls",
    "name": "Dhyanganga WLS",
    "category": "wls",
    "state": [
      "Maharashtra"
    ],
    "area_km2": 205.2,
    "centroid_lat": 20.5494,
    "centroid_lng": 76.3456,
    "hasBoundary": true
  },
  {
    "id": "ws_dibang_wls",
    "name": "Dibang WLS",
    "category": "wls",
    "state": [
      "Arunachal Pradesh"
    ],
    "area_km2": 4149,
    "centroid_lat": 29.1093,
    "centroid_lng": 95.9811,
    "hasBoundary": true
  },
  {
    "id": "ws_dihing_patkai_wls",
    "name": "Dihing Patkai WLS",
    "category": "wls",
    "state": [
      "Assam"
    ],
    "area_km2": 111.2,
    "centroid_lat": 27.3358,
    "centroid_lng": 95.5008,
    "hasBoundary": true
  },
  {
    "id": "ws_dot_island_wls",
    "name": "Dot Island WLS",
    "category": "wls",
    "state": [
      "Andaman & Nicobar Islands"
    ],
    "area_km2": 0.1,
    "centroid_lat": 13.0231,
    "centroid_lng": 92.9479,
    "hasBoundary": true
  },
  {
    "id": "ws_dottrell_island_wls",
    "name": "Dottrell Island WLS",
    "category": "wls",
    "state": [
      "Andaman & Nicobar Islands"
    ],
    "area_km2": 0.1,
    "centroid_lat": 12.9285,
    "centroid_lng": 92.8874,
    "hasBoundary": true
  },
  {
    "id": "ws_dr_bhimrao_ambedkar_bird",
    "name": "Dr. Bhimrao Ambedkar Bird",
    "category": "wls",
    "state": [
      "Uttar Pradesh"
    ],
    "area_km2": 4.3,
    "centroid_lat": 25.6585,
    "centroid_lng": 81.4965,
    "hasBoundary": true
  },
  {
    "id": "ws_duncan_island_wls",
    "name": "Duncan Island WLS",
    "category": "wls",
    "state": [
      "Andaman & Nicobar Islands"
    ],
    "area_km2": 0.7,
    "centroid_lat": 12.0164,
    "centroid_lng": 92.7737,
    "hasBoundary": true
  },
  {
    "id": "ws_eagle_nest_wls",
    "name": "Eagle Nest WLS",
    "category": "wls",
    "state": [
      "Arunachal Pradesh"
    ],
    "area_km2": 217,
    "centroid_lat": 27.0623,
    "centroid_lng": 92.4119,
    "hasBoundary": true
  },
  {
    "id": "ws_east_island_wls",
    "name": "East Island WLS",
    "category": "wls",
    "state": [
      "Andaman & Nicobar Islands"
    ],
    "area_km2": 6.1,
    "centroid_lat": 13.6409,
    "centroid_lng": 93.0539,
    "hasBoundary": true
  },
  {
    "id": "ws_east_karbi_anglong_wls",
    "name": "East Karbi Anglong WLS",
    "category": "wls",
    "state": [
      "Assam"
    ],
    "area_km2": 221.8,
    "centroid_lat": 26.4218,
    "centroid_lng": 93.3585,
    "hasBoundary": true
  },
  {
    "id": "ws_east_of_inglis_island_wls",
    "name": "East of Inglis Island WLS",
    "category": "wls",
    "state": [
      "Andaman & Nicobar Islands"
    ],
    "area_km2": 3.6,
    "centroid_lat": 12.1406,
    "centroid_lng": 93.1165,
    "hasBoundary": true
  },
  {
    "id": "ws_egg_island_wls",
    "name": "Egg Island WLS",
    "category": "wls",
    "state": [
      "Andaman & Nicobar Islands"
    ],
    "area_km2": 0.1,
    "centroid_lat": 12.9323,
    "centroid_lng": 92.8918,
    "hasBoundary": true
  },
  {
    "id": "ws_elat_island_wls",
    "name": "Elat Island WLS",
    "category": "wls",
    "state": [
      "Andaman & Nicobar Islands"
    ],
    "area_km2": 9.4,
    "centroid_lat": 12.535,
    "centroid_lng": 92.6765,
    "hasBoundary": true
  },
  {
    "id": "ws_entrance_island_wls",
    "name": "Entrance Island WLS",
    "category": "wls",
    "state": [
      "Andaman & Nicobar Islands"
    ],
    "area_km2": 1,
    "centroid_lat": 12.888,
    "centroid_lng": 92.7867,
    "hasBoundary": true
  },
  {
    "id": "ws_eturnagaram_wls",
    "name": "Eturnagaram WLS",
    "category": "wls",
    "state": [
      "Telangana"
    ],
    "area_km2": 803,
    "centroid_lat": 18.2661,
    "centroid_lng": 80.2659,
    "hasBoundary": true
  },
  {
    "id": "ws_fakim_wls",
    "name": "Fakim WLS",
    "category": "wls",
    "state": [
      "Nagaland"
    ],
    "area_km2": 6.4,
    "centroid_lat": 25.8491,
    "centroid_lng": 94.9784,
    "hasBoundary": true
  },
  {
    "id": "ws_fambong_lho_wls",
    "name": "Fambong Lho WLS",
    "category": "wls",
    "state": [
      "Sikkim"
    ],
    "area_km2": 51.8,
    "centroid_lat": 27.3266,
    "centroid_lng": 88.5309,
    "hasBoundary": true
  },
  {
    "id": "ws_fudam_wls",
    "name": "Fudam WLS",
    "category": "wls",
    "state": [
      "Dadra & Nagar Haveli and Daman & Diu"
    ],
    "area_km2": 2.2,
    "centroid_lat": 20.7296,
    "centroid_lng": 70.9546,
    "hasBoundary": true
  },
  {
    "id": "ws_girnar_wls",
    "name": "GIRNAR WLS",
    "category": "wls",
    "state": [
      "Gujarat"
    ],
    "area_km2": 178.8,
    "centroid_lat": 21.5111,
    "centroid_lng": 70.5406,
    "hasBoundary": true
  },
  {
    "id": "ws_gaga_great_indian_bustard_wls",
    "name": "Gaga Great Indian Bustard WLS",
    "category": "wls",
    "state": [
      "Gujarat"
    ],
    "area_km2": 3.3,
    "centroid_lat": 22.1299,
    "centroid_lng": 69.1697,
    "hasBoundary": true
  },
  {
    "id": "ws_gahirmatha_marine_wls",
    "name": "Gahirmatha (Marine) WLS",
    "category": "wls",
    "state": [
      "Odisha"
    ],
    "area_km2": 1435,
    "centroid_lat": 20.5291,
    "centroid_lng": 86.8634,
    "hasBoundary": true
  },
  {
    "id": "ws_galathea_bay_wls",
    "name": "Galathea Bay WLS",
    "category": "wls",
    "state": [
      "Andaman & Nicobar Islands"
    ],
    "area_km2": 11.4,
    "centroid_lat": 6.8216,
    "centroid_lng": 93.8746,
    "hasBoundary": true
  },
  {
    "id": "ws_gamgul_siahbehi_wls",
    "name": "Gamgul Siahbehi WLS",
    "category": "wls",
    "state": [
      "Himachal Pradesh"
    ],
    "area_km2": 108.4,
    "centroid_lat": 32.8468,
    "centroid_lng": 75.9118,
    "hasBoundary": true
  },
  {
    "id": "ws_gander_island_wls",
    "name": "Gander Island WLS",
    "category": "wls",
    "state": [
      "Andaman & Nicobar Islands"
    ],
    "area_km2": 0.1,
    "centroid_lat": 13.0035,
    "centroid_lng": 92.9118,
    "hasBoundary": true
  },
  {
    "id": "ws_gandhi_sagar_wls",
    "name": "Gandhi Sagar WLS",
    "category": "wls",
    "state": [
      "Madhya Pradesh"
    ],
    "area_km2": 368.6,
    "centroid_lat": 24.6716,
    "centroid_lng": 75.6121,
    "hasBoundary": true
  },
  {
    "id": "ws_gangaikondam_spotted_deer_wls",
    "name": "Gangaikondam Spotted Deer WLS",
    "category": "wls",
    "state": [
      "Tamil Nadu"
    ],
    "area_km2": 2.9,
    "centroid_lat": 8.8244,
    "centroid_lng": 77.7673,
    "hasBoundary": true
  },
  {
    "id": "ws_garampani_wls",
    "name": "Garampani WLS",
    "category": "wls",
    "state": [
      "Assam"
    ],
    "area_km2": 6.1,
    "centroid_lat": 26.3872,
    "centroid_lng": 93.8797,
    "hasBoundary": true
  },
  {
    "id": "ws_gautala_autramghat_wls",
    "name": "Gautala Autramghat WLS",
    "category": "wls",
    "state": [
      "Maharashtra"
    ],
    "area_km2": 260.6,
    "centroid_lat": 20.3345,
    "centroid_lng": 75.1056,
    "hasBoundary": true
  },
  {
    "id": "ws_gautam_budha_wls",
    "name": "Gautam Budha WLS",
    "category": "wls",
    "state": [
      "Jharkhand"
    ],
    "area_km2": 121.1,
    "centroid_lat": 24.4302,
    "centroid_lng": 85.0794,
    "hasBoundary": true
  },
  {
    "id": "ws_ghataprabha_wls",
    "name": "Ghataprabha WLS",
    "category": "wls",
    "state": [
      "Karnataka"
    ],
    "area_km2": 29.8,
    "centroid_lat": 16.1995,
    "centroid_lng": 74.717,
    "hasBoundary": true
  },
  {
    "id": "ws_ghatigaon_wls",
    "name": "Ghatigaon WLS",
    "category": "wls",
    "state": [
      "Madhya Pradesh"
    ],
    "area_km2": 510.6,
    "centroid_lat": 26.1664,
    "centroid_lng": 77.9187,
    "hasBoundary": true
  },
  {
    "id": "ws_ghodazari",
    "name": "Ghodazari",
    "category": "wls",
    "state": [
      "Maharashtra"
    ],
    "area_km2": 159,
    "centroid_lat": 20.5516,
    "centroid_lng": 79.6146,
    "hasBoundary": true
  },
  {
    "id": "ws_gir_wls",
    "name": "Gir WLS",
    "category": "wls",
    "state": [
      "Gujarat"
    ],
    "area_km2": 1153.4,
    "centroid_lat": 21.1455,
    "centroid_lng": 70.7437,
    "hasBoundary": true
  },
  {
    "id": "ws_girjan_island_wls",
    "name": "Girjan Island WLS",
    "category": "wls",
    "state": [
      "Andaman & Nicobar Islands"
    ],
    "area_km2": 0.2,
    "centroid_lat": 12.9156,
    "centroid_lng": 92.9115,
    "hasBoundary": true
  },
  {
    "id": "ws_gomardha_wls",
    "name": "Gomardha WLS",
    "category": "wls",
    "state": [
      "Chhattisgarh"
    ],
    "area_km2": 277.8,
    "centroid_lat": 21.4857,
    "centroid_lng": 83.1407,
    "hasBoundary": true
  },
  {
    "id": "ws_goose_island_wls",
    "name": "Goose Island WLS",
    "category": "wls",
    "state": [
      "Andaman & Nicobar Islands"
    ],
    "area_km2": 0,
    "centroid_lat": 13.0074,
    "centroid_lng": 92.9098,
    "hasBoundary": true
  },
  {
    "id": "ws_govind_pashu_vihar_wls",
    "name": "Govind Pashu Vihar WLS",
    "category": "wls",
    "state": [
      "Uttarakhand"
    ],
    "area_km2": 485.9,
    "centroid_lat": 31.1462,
    "centroid_lng": 78.2516,
    "hasBoundary": true
  },
  {
    "id": "ws_govind_sagar_wls",
    "name": "Govind Sagar WLS",
    "category": "wls",
    "state": [
      "Himachal Pradesh"
    ],
    "area_km2": 100,
    "centroid_lat": 31.3417,
    "centroid_lng": 76.5574,
    "hasBoundary": true
  },
  {
    "id": "ws_great_indian_bustard_wls",
    "name": "Great Indian Bustard WLS",
    "category": "wls",
    "state": [
      "Maharashtra"
    ],
    "area_km2": 366.7,
    "centroid_lat": 17.8115,
    "centroid_lng": 75.8714,
    "hasBoundary": true
  },
  {
    "id": "ws_gudavi_bird_wls",
    "name": "Gudavi Bird WLS",
    "category": "wls",
    "state": [
      "Karnataka"
    ],
    "area_km2": 0.7,
    "centroid_lat": 14.4384,
    "centroid_lng": 75.0135,
    "hasBoundary": true
  },
  {
    "id": "ws_gudekote_sloth_bear",
    "name": "Gudekote Sloth Bear",
    "category": "wls",
    "state": [
      "Karnataka"
    ],
    "area_km2": 47.6,
    "centroid_lat": 14.8212,
    "centroid_lng": 76.6542,
    "hasBoundary": true
  },
  {
    "id": "ws_gudekote_wls",
    "name": "Gudekote WLS",
    "category": "wls",
    "state": [
      "Karnataka"
    ],
    "area_km2": 47.6,
    "centroid_lat": 14.8685,
    "centroid_lng": 76.631,
    "hasBoundary": true
  },
  {
    "id": "ws_gulmarg_wls",
    "name": "Gulmarg WLS",
    "category": "wls",
    "state": [
      "Jammu & Kashmir"
    ],
    "area_km2": 180,
    "centroid_lat": 34.0705,
    "centroid_lng": 74.3791,
    "hasBoundary": true
  },
  {
    "id": "ws_gumti_wls",
    "name": "Gumti WLS",
    "category": "wls",
    "state": [
      "Tripura"
    ],
    "area_km2": 389.5,
    "centroid_lat": 23.7171,
    "centroid_lng": 91.812,
    "hasBoundary": true
  },
  {
    "id": "ws_gundla_brahmeswaram_wls",
    "name": "Gundla Brahmeswaram WLS",
    "category": "wls",
    "state": [
      "Andhra Pradesh"
    ],
    "area_km2": 1193.7,
    "centroid_lat": 15.7055,
    "centroid_lng": 78.7099,
    "hasBoundary": true
  },
  {
    "id": "ws_hadgarh_wls",
    "name": "Hadgarh WLS",
    "category": "wls",
    "state": [
      "Odisha"
    ],
    "area_km2": 191.1,
    "centroid_lat": 21.3098,
    "centroid_lng": 86.2694,
    "hasBoundary": true
  },
  {
    "id": "ws_haliday_island_wls",
    "name": "Haliday Island WLS",
    "category": "wls",
    "state": [
      "West Bengal"
    ],
    "area_km2": 6,
    "centroid_lat": 21.6622,
    "centroid_lng": 88.6339,
    "hasBoundary": true
  },
  {
    "id": "ws_hallongapara_gibbon_wls",
    "name": "Hallongapara Gibbon WLS",
    "category": "wls",
    "state": [
      "Assam"
    ],
    "area_km2": 21,
    "centroid_lat": 26.7003,
    "centroid_lng": 94.3429,
    "hasBoundary": true
  },
  {
    "id": "ws_harike_lake_wls",
    "name": "Harike Lake WLS",
    "category": "wls",
    "state": [
      "Punjab"
    ],
    "area_km2": 86,
    "centroid_lat": 31.1534,
    "centroid_lng": 74.9848,
    "hasBoundary": true
  },
  {
    "id": "ws_hastinapur_wls",
    "name": "Hastinapur WLS",
    "category": "wls",
    "state": [
      "Uttar Pradesh"
    ],
    "area_km2": 2073,
    "centroid_lat": 29.5107,
    "centroid_lng": 78.0004,
    "hasBoundary": true
  },
  {
    "id": "ws_hazaribagh_wls",
    "name": "Hazaribagh WLS",
    "category": "wls",
    "state": [
      "Jharkhand"
    ],
    "area_km2": 186.3,
    "centroid_lat": 24.1368,
    "centroid_lng": 85.3678,
    "hasBoundary": true
  },
  {
    "id": "ws_hingolgarh_nature_reserve_wls",
    "name": "Hingolgarh Nature Reserve WLS",
    "category": "wls",
    "state": [
      "Gujarat"
    ],
    "area_km2": 6.5,
    "centroid_lat": 22.1472,
    "centroid_lng": 71.3198,
    "hasBoundary": true
  },
  {
    "id": "ws_hirpora_wls",
    "name": "Hirpora WLS",
    "category": "wls",
    "state": [
      "Jammu & Kashmir"
    ],
    "area_km2": 341.3,
    "centroid_lat": 33.6058,
    "centroid_lng": 74.6165,
    "hasBoundary": true
  },
  {
    "id": "ws_hokarsar_lake_wls",
    "name": "Hokarsar Lake WLS",
    "category": "wls",
    "state": [
      "Jammu & Kashmir"
    ],
    "area_km2": 13.8,
    "centroid_lat": 34.0899,
    "centroid_lng": 74.7146,
    "hasBoundary": true
  },
  {
    "id": "ws_hump_island_wls",
    "name": "Hump Island WLS",
    "category": "wls",
    "state": [
      "Andaman & Nicobar Islands"
    ],
    "area_km2": 0.5,
    "centroid_lat": 12.6396,
    "centroid_lng": 92.7021,
    "hasBoundary": true
  },
  {
    "id": "ws_idukki_wls",
    "name": "Idukki WLS",
    "category": "wls",
    "state": [
      "Kerala"
    ],
    "area_km2": 70,
    "centroid_lat": 9.7951,
    "centroid_lng": 76.9707,
    "hasBoundary": true
  },
  {
    "id": "ws_indira_gandhi_annamalai_wls",
    "name": "Indira Gandhi (Annamalai) WLS",
    "category": "wls",
    "state": [
      "Tamil Nadu"
    ],
    "area_km2": 841.5,
    "centroid_lat": 10.3863,
    "centroid_lng": 77.0393,
    "hasBoundary": true
  },
  {
    "id": "ws_interview_island_wls",
    "name": "Interview Island WLS",
    "category": "wls",
    "state": [
      "Andaman & Nicobar Islands"
    ],
    "area_km2": 133.9,
    "centroid_lat": 12.9031,
    "centroid_lng": 92.6897,
    "hasBoundary": true
  },
  {
    "id": "ws_itanagar_wls",
    "name": "Itanagar WLS",
    "category": "wls",
    "state": [
      "Arunachal Pradesh"
    ],
    "area_km2": 140.3,
    "centroid_lat": 27.1856,
    "centroid_lng": 93.6188,
    "hasBoundary": true
  },
  {
    "id": "ws_jaikwadi_wls",
    "name": "Jaikwadi WLS",
    "category": "wls",
    "state": [
      "Maharashtra"
    ],
    "area_km2": 341.1,
    "centroid_lat": 19.5704,
    "centroid_lng": 75.1545,
    "hasBoundary": true
  },
  {
    "id": "ws_jaisamand_wls",
    "name": "Jaisamand WLS",
    "category": "wls",
    "state": [
      "Rajasthan"
    ],
    "area_km2": 52,
    "centroid_lat": 24.3142,
    "centroid_lng": 73.8605,
    "hasBoundary": true
  },
  {
    "id": "ws_jambugodha_wls",
    "name": "Jambugodha WLS",
    "category": "wls",
    "state": [
      "Gujarat"
    ],
    "area_km2": 130.4,
    "centroid_lat": 22.3983,
    "centroid_lng": 73.6752,
    "hasBoundary": true
  },
  {
    "id": "ws_james_island_wls",
    "name": "James Island WLS",
    "category": "wls",
    "state": [
      "Andaman & Nicobar Islands"
    ],
    "area_km2": 2.1,
    "centroid_lat": 11.951,
    "centroid_lng": 92.728,
    "hasBoundary": true
  },
  {
    "id": "ws_jamwa_ramgarh_wls",
    "name": "Jamwa Ramgarh WLS",
    "category": "wls",
    "state": [
      "Rajasthan"
    ],
    "area_km2": 300,
    "centroid_lat": 27.103,
    "centroid_lng": 76.1276,
    "hasBoundary": true
  },
  {
    "id": "ws_jasrota_wls",
    "name": "Jasrota WLS",
    "category": "wls",
    "state": [
      "Jammu & Kashmir"
    ],
    "area_km2": 10,
    "centroid_lat": 32.4909,
    "centroid_lng": 75.3748,
    "hasBoundary": true
  },
  {
    "id": "ws_jawahar_sagar_wls",
    "name": "Jawahar Sagar WLS",
    "category": "wls",
    "state": [
      "Rajasthan"
    ],
    "area_km2": 153.4,
    "centroid_lat": 25.0117,
    "centroid_lng": 75.5813,
    "hasBoundary": true
  },
  {
    "id": "ws_jessore_wls",
    "name": "Jessore WLS",
    "category": "wls",
    "state": [
      "Gujarat"
    ],
    "area_km2": 180.7,
    "centroid_lat": 24.4256,
    "centroid_lng": 72.4873,
    "hasBoundary": true
  },
  {
    "id": "ws_jhajjar_bachauli_wls",
    "name": "Jhajjar Bachauli WLS",
    "category": "wls",
    "state": [
      "Punjab"
    ],
    "area_km2": 1.2,
    "centroid_lat": 31.2648,
    "centroid_lng": 76.5167,
    "hasBoundary": true
  },
  {
    "id": "ws_jiri_makru",
    "name": "Jiri Makru",
    "category": "wls",
    "state": [
      "Manipur"
    ],
    "area_km2": 198,
    "centroid_lat": 25.2129,
    "centroid_lng": 93.3877,
    "hasBoundary": true
  },
  {
    "id": "ws_jogimatti",
    "name": "Jogimatti",
    "category": "wls",
    "state": [
      "Karnataka"
    ],
    "area_km2": 100.5,
    "centroid_lat": 14.1052,
    "centroid_lng": 76.4002,
    "hasBoundary": true
  },
  {
    "id": "ws_jorepokhri_salamander_wls",
    "name": "Jorepokhri Salamander WLS",
    "category": "wls",
    "state": [
      "West Bengal"
    ],
    "area_km2": 0,
    "centroid_lat": 26.9907,
    "centroid_lng": 88.1569,
    "hasBoundary": true
  },
  {
    "id": "ws_jungle_island_wls",
    "name": "Jungle Island WLS",
    "category": "wls",
    "state": [
      "Andaman & Nicobar Islands"
    ],
    "area_km2": 0.5,
    "centroid_lat": 13.3426,
    "centroid_lng": 93.0376,
    "hasBoundary": true
  },
  {
    "id": "ws_kachchh_desert_wls",
    "name": "Kachchh Desert WLS",
    "category": "wls",
    "state": [
      "Gujarat"
    ],
    "area_km2": 7506.2,
    "centroid_lat": 24.182,
    "centroid_lng": 70.5415,
    "hasBoundary": true
  },
  {
    "id": "ws_kailadevi_wls",
    "name": "Kailadevi WLS",
    "category": "wls",
    "state": [
      "Rajasthan"
    ],
    "area_km2": 676.4,
    "centroid_lat": 26.1855,
    "centroid_lng": 76.9157,
    "hasBoundary": true
  },
  {
    "id": "ws_kailam",
    "name": "Kailam",
    "category": "wls",
    "state": [
      "Manipur"
    ],
    "area_km2": 187.5,
    "centroid_lat": 24.291,
    "centroid_lng": 93.4256,
    "hasBoundary": true
  },
  {
    "id": "ws_kaimur_wls",
    "name": "Kaimur WLS",
    "category": "wls",
    "state": [
      "Uttar Pradesh"
    ],
    "area_km2": 500.7,
    "centroid_lat": 24.718,
    "centroid_lng": 83.1587,
    "hasBoundary": true
  },
  {
    "id": "ws_kais_wls",
    "name": "Kais WLS",
    "category": "wls",
    "state": [
      "Himachal Pradesh"
    ],
    "area_km2": 12.6,
    "centroid_lat": 32.0172,
    "centroid_lng": 77.1682,
    "hasBoundary": true
  },
  {
    "id": "ws_kalakad_wls",
    "name": "Kalakad WLS",
    "category": "wls",
    "state": [
      "Tamil Nadu"
    ],
    "area_km2": 223.6,
    "centroid_lat": 8.5446,
    "centroid_lng": 77.4589,
    "hasBoundary": true
  },
  {
    "id": "ws_kalatop_khajjiar_wls",
    "name": "Kalatop-Khajjiar WLS",
    "category": "wls",
    "state": [
      "Himachal Pradesh"
    ],
    "area_km2": 17.2,
    "centroid_lat": 32.5457,
    "centroid_lng": 76.0408,
    "hasBoundary": true
  },
  {
    "id": "ws_kalesar_wls",
    "name": "Kalesar WLS",
    "category": "wls",
    "state": [
      "Haryana"
    ],
    "area_km2": 54.4,
    "centroid_lat": 30.3612,
    "centroid_lng": 77.4805,
    "hasBoundary": true
  },
  {
    "id": "ws_kamasandra_wls",
    "name": "Kamasandra WLS",
    "category": "wls",
    "state": [
      "Karnataka"
    ],
    "area_km2": 78.6,
    "centroid_lat": 12.8124,
    "centroid_lng": 78.1592,
    "hasBoundary": true
  },
  {
    "id": "ws_kambalkonda_wls",
    "name": "Kambalkonda WLS",
    "category": "wls",
    "state": [
      "Andhra Pradesh"
    ],
    "area_km2": 71.4,
    "centroid_lat": 17.8254,
    "centroid_lng": 83.3118,
    "hasBoundary": true
  },
  {
    "id": "ws_kamlang",
    "name": "Kamlang",
    "category": "wls",
    "state": [
      "Arunachal Pradesh"
    ],
    "area_km2": 77.6,
    "centroid_lat": 27.8972,
    "centroid_lng": 96.1866,
    "hasBoundary": true
  },
  {
    "id": "ws_kamlang_wls",
    "name": "Kamlang WLS",
    "category": "wls",
    "state": [
      "Arunachal Pradesh"
    ],
    "area_km2": 783,
    "centroid_lat": 27.8024,
    "centroid_lng": 96.6574,
    "hasBoundary": true
  },
  {
    "id": "ws_kanawar_wls",
    "name": "Kanawar WLS",
    "category": "wls",
    "state": [
      "Himachal Pradesh"
    ],
    "area_km2": 107.3,
    "centroid_lat": 31.947,
    "centroid_lng": 77.3555,
    "hasBoundary": true
  },
  {
    "id": "ws_kane_wls",
    "name": "Kane WLS",
    "category": "wls",
    "state": [
      "Arunachal Pradesh"
    ],
    "area_km2": 31,
    "centroid_lat": 27.6815,
    "centroid_lng": 94.6233,
    "hasBoundary": true
  },
  {
    "id": "ws_kanjirankulam_wls",
    "name": "Kanjirankulam WLS",
    "category": "wls",
    "state": [
      "Tamil Nadu"
    ],
    "area_km2": 1,
    "centroid_lat": 9.3593,
    "centroid_lng": 78.4782,
    "hasBoundary": true
  },
  {
    "id": "ws_kanwarjheel_wls",
    "name": "Kanwarjheel WLS",
    "category": "wls",
    "state": [
      "Bihar"
    ],
    "area_km2": 63.1,
    "centroid_lat": 25.6137,
    "centroid_lng": 86.1464,
    "hasBoundary": true
  },
  {
    "id": "ws_kanyakumari_wls",
    "name": "Kanyakumari WLS",
    "category": "wls",
    "state": [
      "Tamil Nadu"
    ],
    "area_km2": 402.4,
    "centroid_lat": 8.4118,
    "centroid_lng": 77.3766,
    "hasBoundary": true
  },
  {
    "id": "ws_kapilash",
    "name": "Kapilash",
    "category": "wls",
    "state": [
      "Odisha"
    ],
    "area_km2": 125.5,
    "centroid_lat": 20.6738,
    "centroid_lng": 85.8245,
    "hasBoundary": true
  },
  {
    "id": "ws_kappathagudda",
    "name": "Kappathagudda",
    "category": "wls",
    "state": [
      "Karnataka"
    ],
    "area_km2": 244.2,
    "centroid_lat": 15.2138,
    "centroid_lng": 75.7291,
    "hasBoundary": true
  },
  {
    "id": "ws_karaivetti_wls",
    "name": "Karaivetti WLS",
    "category": "wls",
    "state": [
      "Tamil Nadu"
    ],
    "area_km2": 4.5,
    "centroid_lat": 10.9838,
    "centroid_lng": 79.0419,
    "hasBoundary": true
  },
  {
    "id": "ws_karakoram_nubra_shyok_wls",
    "name": "Karakoram (Nubra Shyok) WLS",
    "category": "wls",
    "state": [
      "Ladakh"
    ],
    "area_km2": 5000,
    "centroid_lat": 34.8862,
    "centroid_lng": 77.2249,
    "hasBoundary": true
  },
  {
    "id": "ws_karanja_sohol_blackbuck_wls",
    "name": "Karanja Sohol Blackbuck WLS",
    "category": "wls",
    "state": [
      "Maharashtra"
    ],
    "area_km2": 18.3,
    "centroid_lat": 20.4257,
    "centroid_lng": 77.5324,
    "hasBoundary": true
  },
  {
    "id": "ws_karera_wls",
    "name": "Karera WLS",
    "category": "wls",
    "state": [
      "Madhya Pradesh"
    ],
    "area_km2": 202.2,
    "centroid_lat": 25.6513,
    "centroid_lng": 78.1518,
    "hasBoundary": true
  },
  {
    "id": "ws_karikili_wls",
    "name": "Karikili WLS",
    "category": "wls",
    "state": [
      "Tamil Nadu"
    ],
    "area_km2": 0.6,
    "centroid_lat": 12.5988,
    "centroid_lng": 79.8422,
    "hasBoundary": true
  },
  {
    "id": "ws_karimpuzha",
    "name": "Karimpuzha",
    "category": "wls",
    "state": [
      "Kerala"
    ],
    "area_km2": 228,
    "centroid_lat": 11.295,
    "centroid_lng": 76.4746,
    "hasBoundary": true
  },
  {
    "id": "ws_karlapat_wls",
    "name": "Karlapat WLS",
    "category": "wls",
    "state": [
      "Odisha"
    ],
    "area_km2": 147.7,
    "centroid_lat": 19.7146,
    "centroid_lng": 83.0922,
    "hasBoundary": true
  },
  {
    "id": "ws_karnala_wls",
    "name": "Karnala WLS",
    "category": "wls",
    "state": [
      "Maharashtra"
    ],
    "area_km2": 4.5,
    "centroid_lat": 18.8765,
    "centroid_lng": 73.1221,
    "hasBoundary": true
  },
  {
    "id": "ws_katepurna_wls",
    "name": "Katepurna WLS",
    "category": "wls",
    "state": [
      "Maharashtra"
    ],
    "area_km2": 73.6,
    "centroid_lat": 20.4168,
    "centroid_lng": 77.1678,
    "hasBoundary": true
  },
  {
    "id": "ws_katerniaghat_wls",
    "name": "Katerniaghat WLS",
    "category": "wls",
    "state": [
      "Uttar Pradesh"
    ],
    "area_km2": 400.1,
    "centroid_lat": 28.2013,
    "centroid_lng": 81.2099,
    "hasBoundary": true
  },
  {
    "id": "ws_kathlaur_kushlian_wls",
    "name": "Kathlaur Kushlian WLS",
    "category": "wls",
    "state": [
      "Punjab"
    ],
    "area_km2": 7.6,
    "centroid_lat": 32.2649,
    "centroid_lng": 75.4509,
    "hasBoundary": true
  },
  {
    "id": "ws_kaundinya_wls",
    "name": "Kaundinya WLS",
    "category": "wls",
    "state": [
      "Andhra Pradesh"
    ],
    "area_km2": 357.6,
    "centroid_lat": 13.1447,
    "centroid_lng": 78.7415,
    "hasBoundary": true
  },
  {
    "id": "ws_kawal_wls",
    "name": "Kawal WLS",
    "category": "wls",
    "state": [
      "Telangana"
    ],
    "area_km2": 892.2,
    "centroid_lat": 19.2326,
    "centroid_lng": 78.8301,
    "hasBoundary": true
  },
  {
    "id": "ws_kedarnath_wls",
    "name": "Kedarnath WLS",
    "category": "wls",
    "state": [
      "Uttarakhand"
    ],
    "area_km2": 975.2,
    "centroid_lat": 30.6026,
    "centroid_lng": 79.173,
    "hasBoundary": true
  },
  {
    "id": "ws_ken_gharial_wls",
    "name": "Ken Gharial WLS",
    "category": "wls",
    "state": [
      "Madhya Pradesh"
    ],
    "area_km2": 45.2,
    "centroid_lat": 24.9091,
    "centroid_lng": 80.0531,
    "hasBoundary": true
  },
  {
    "id": "ws_kesarbagh_wls",
    "name": "Kesarbagh WLS",
    "category": "wls",
    "state": [
      "Rajasthan"
    ],
    "area_km2": 14.8,
    "centroid_lat": 25.4217,
    "centroid_lng": 73.7554,
    "hasBoundary": true
  },
  {
    "id": "ws_khalasuni_wls",
    "name": "Khalasuni WLS",
    "category": "wls",
    "state": [
      "Odisha"
    ],
    "area_km2": 116,
    "centroid_lat": 21.3889,
    "centroid_lng": 84.5118,
    "hasBoundary": true
  },
  {
    "id": "ws_khaparwas_wls",
    "name": "Khaparwas WLS",
    "category": "wls",
    "state": [
      "Haryana"
    ],
    "area_km2": 0.8,
    "centroid_lat": 28.5365,
    "centroid_lng": 76.5465,
    "hasBoundary": true
  },
  {
    "id": "ws_khawnglung_wls",
    "name": "Khawnglung WLS",
    "category": "wls",
    "state": [
      "Mizoram"
    ],
    "area_km2": 35,
    "centroid_lat": 23.1167,
    "centroid_lng": 92.9536,
    "hasBoundary": true
  },
  {
    "id": "ws_kheoni_wls",
    "name": "Kheoni WLS",
    "category": "wls",
    "state": [
      "Madhya Pradesh"
    ],
    "area_km2": 134.8,
    "centroid_lat": 22.8397,
    "centroid_lng": 76.8582,
    "hasBoundary": true
  },
  {
    "id": "ws_khijadiya_wls",
    "name": "Khijadiya WLS",
    "category": "wls",
    "state": [
      "Gujarat"
    ],
    "area_km2": 6.1,
    "centroid_lat": 22.5179,
    "centroid_lng": 70.1535,
    "hasBoundary": true
  },
  {
    "id": "ws_khokhan_wls",
    "name": "Khokhan WLS",
    "category": "wls",
    "state": [
      "Himachal Pradesh"
    ],
    "area_km2": 14.9,
    "centroid_lat": 31.8678,
    "centroid_lng": 77.0754,
    "hasBoundary": true
  },
  {
    "id": "ws_kibber_wls",
    "name": "Kibber WLS",
    "category": "wls",
    "state": [
      "Himachal Pradesh"
    ],
    "area_km2": 2220.1,
    "centroid_lat": 32.5354,
    "centroid_lng": 78.2724,
    "hasBoundary": true
  },
  {
    "id": "ws_kinnersani_wls",
    "name": "Kinnersani WLS",
    "category": "wls",
    "state": [
      "Telangana"
    ],
    "area_km2": 635.4,
    "centroid_lat": 17.8012,
    "centroid_lng": 80.5851,
    "hasBoundary": true
  },
  {
    "id": "ws_kishanpur_wls",
    "name": "Kishanpur WLS",
    "category": "wls",
    "state": [
      "Uttar Pradesh"
    ],
    "area_km2": 227,
    "centroid_lat": 28.3835,
    "centroid_lng": 80.4086,
    "hasBoundary": true
  },
  {
    "id": "ws_kitam_bird_sanctuary_wls",
    "name": "Kitam Bird Sanctuary WLS",
    "category": "wls",
    "state": [
      "Sikkim"
    ],
    "area_km2": 6,
    "centroid_lat": 27.1109,
    "centroid_lng": 88.3434,
    "hasBoundary": true
  },
  {
    "id": "ws_kodaikanal_wls",
    "name": "Kodaikanal WLS",
    "category": "wls",
    "state": [
      "Tamil Nadu"
    ],
    "area_km2": 609,
    "centroid_lat": 10.2577,
    "centroid_lng": 77.4556,
    "hasBoundary": true
  },
  {
    "id": "ws_koderma_wls",
    "name": "Koderma WLS",
    "category": "wls",
    "state": [
      "Jharkhand"
    ],
    "area_km2": 177.4,
    "centroid_lat": 24.556,
    "centroid_lng": 85.5858,
    "hasBoundary": true
  },
  {
    "id": "ws_koka",
    "name": "Koka",
    "category": "wls",
    "state": [
      "Maharashtra"
    ],
    "area_km2": 100.1,
    "centroid_lat": 21.1722,
    "centroid_lng": 79.7865,
    "hasBoundary": true
  },
  {
    "id": "ws_kolleru_wls",
    "name": "Kolleru WLS",
    "category": "wls",
    "state": [
      "Andhra Pradesh"
    ],
    "area_km2": 308.6,
    "centroid_lat": 16.6513,
    "centroid_lng": 81.2412,
    "hasBoundary": true
  },
  {
    "id": "ws_koonthankulam_kadankulam_wls",
    "name": "Koonthankulam-Kadankulam WLS",
    "category": "wls",
    "state": [
      "Tamil Nadu"
    ],
    "area_km2": 1.3,
    "centroid_lat": 8.4942,
    "centroid_lng": 77.761,
    "hasBoundary": true
  },
  {
    "id": "ws_kotagarh_wls",
    "name": "Kotagarh WLS",
    "category": "wls",
    "state": [
      "Odisha"
    ],
    "area_km2": 399.5,
    "centroid_lat": 19.8484,
    "centroid_lng": 83.7888,
    "hasBoundary": true
  },
  {
    "id": "ws_kottiyoor_wls",
    "name": "Kottiyoor WLS",
    "category": "wls",
    "state": [
      "Kerala"
    ],
    "area_km2": 30.4,
    "centroid_lat": 11.8982,
    "centroid_lng": 75.9086,
    "hasBoundary": true
  },
  {
    "id": "ws_koyana_wls",
    "name": "Koyana WLS",
    "category": "wls",
    "state": [
      "Maharashtra"
    ],
    "area_km2": 423.6,
    "centroid_lat": 17.5768,
    "centroid_lng": 73.7275,
    "hasBoundary": true
  },
  {
    "id": "ws_krishna_wls",
    "name": "Krishna WLS",
    "category": "wls",
    "state": [
      "Andhra Pradesh"
    ],
    "area_km2": 194.8,
    "centroid_lat": 15.801,
    "centroid_lng": 80.8457,
    "hasBoundary": true
  },
  {
    "id": "ws_kugti_wls",
    "name": "Kugti WLS",
    "category": "wls",
    "state": [
      "Himachal Pradesh"
    ],
    "area_km2": 405.5,
    "centroid_lat": 32.4776,
    "centroid_lng": 76.718,
    "hasBoundary": true
  },
  {
    "id": "ws_kuldiha_wls",
    "name": "Kuldiha WLS",
    "category": "wls",
    "state": [
      "Odisha"
    ],
    "area_km2": 272.8,
    "centroid_lat": 21.4003,
    "centroid_lng": 86.6321,
    "hasBoundary": true
  },
  {
    "id": "ws_kumbhalgarh_wls",
    "name": "Kumbhalgarh WLS",
    "category": "wls",
    "state": [
      "Rajasthan"
    ],
    "area_km2": 608.6,
    "centroid_lat": 25.1507,
    "centroid_lng": 73.4969,
    "hasBoundary": true
  },
  {
    "id": "ws_kurinjimala_wls",
    "name": "Kurinjimala WLS",
    "category": "wls",
    "state": [
      "Kerala"
    ],
    "area_km2": 32,
    "centroid_lat": 10.1648,
    "centroid_lng": 77.2685,
    "hasBoundary": true
  },
  {
    "id": "ws_kusheshwar_sthan_wls",
    "name": "Kusheshwar Sthan WLS",
    "category": "wls",
    "state": [
      "Bihar"
    ],
    "area_km2": 29.2,
    "centroid_lat": 25.8351,
    "centroid_lng": 86.294,
    "hasBoundary": true
  },
  {
    "id": "ws_kwangtung_island_wls",
    "name": "Kwangtung Island WLS",
    "category": "wls",
    "state": [
      "Andaman & Nicobar Islands"
    ],
    "area_km2": 0.6,
    "centroid_lat": 13.1692,
    "centroid_lng": 92.7955,
    "hasBoundary": true
  },
  {
    "id": "ws_kyd_island_wls",
    "name": "Kyd Island WLS",
    "category": "wls",
    "state": [
      "Andaman & Nicobar Islands"
    ],
    "area_km2": 8,
    "centroid_lat": 11.9591,
    "centroid_lng": 92.7518,
    "hasBoundary": true
  },
  {
    "id": "ws_kyongnosla_alpine_wls",
    "name": "Kyongnosla Alpine WLS",
    "category": "wls",
    "state": [
      "Sikkim"
    ],
    "area_km2": 31,
    "centroid_lat": 27.3956,
    "centroid_lng": 88.7356,
    "hasBoundary": true
  },
  {
    "id": "ws_lacchipora_wls",
    "name": "Lacchipora WLS",
    "category": "wls",
    "state": [
      "Jammu & Kashmir"
    ],
    "area_km2": 37.7,
    "centroid_lat": 34.2079,
    "centroid_lng": 74.0569,
    "hasBoundary": true
  },
  {
    "id": "ws_lakh_bahosi_wls",
    "name": "Lakh Bahosi WLS",
    "category": "wls",
    "state": [
      "Uttar Pradesh"
    ],
    "area_km2": 80.2,
    "centroid_lat": 26.9281,
    "centroid_lng": 79.6378,
    "hasBoundary": true
  },
  {
    "id": "ws_lakhari_valley_wls",
    "name": "Lakhari Valley WLS",
    "category": "wls",
    "state": [
      "Odisha"
    ],
    "area_km2": 185.9,
    "centroid_lat": 19.3297,
    "centroid_lng": 84.3472,
    "hasBoundary": true
  },
  {
    "id": "ws_lala_great_indian_bustard_wls",
    "name": "Lala Great Indian Bustard WLS",
    "category": "wls",
    "state": [
      "Gujarat"
    ],
    "area_km2": 2,
    "centroid_lat": 23.1829,
    "centroid_lng": 68.7362,
    "hasBoundary": true
  },
  {
    "id": "ws_landfall_island_wls",
    "name": "Landfall Island WLS",
    "category": "wls",
    "state": [
      "Andaman & Nicobar Islands"
    ],
    "area_km2": 29.5,
    "centroid_lat": 13.6545,
    "centroid_lng": 93.0058,
    "hasBoundary": true
  },
  {
    "id": "ws_lanja_madugu_sivaram_wls",
    "name": "Lanja Madugu Sivaram WLS",
    "category": "wls",
    "state": [
      "Telangana"
    ],
    "area_km2": 29.8,
    "centroid_lat": 18.6872,
    "centroid_lng": 79.722,
    "hasBoundary": true
  },
  {
    "id": "ws_latouche_island_wls",
    "name": "Latouche Island WLS",
    "category": "wls",
    "state": [
      "Andaman & Nicobar Islands"
    ],
    "area_km2": 1,
    "centroid_lat": 13.093,
    "centroid_lng": 92.7296,
    "hasBoundary": true
  },
  {
    "id": "ws_lawalong_wls",
    "name": "Lawalong WLS",
    "category": "wls",
    "state": [
      "Jharkhand"
    ],
    "area_km2": 211,
    "centroid_lat": 24.2301,
    "centroid_lng": 84.5214,
    "hasBoundary": true
  },
  {
    "id": "ws_lawkhowa_wls",
    "name": "Lawkhowa WLS",
    "category": "wls",
    "state": [
      "Assam"
    ],
    "area_km2": 70.1,
    "centroid_lat": 26.5057,
    "centroid_lng": 92.7058,
    "hasBoundary": true
  },
  {
    "id": "ws_lengteng_wls",
    "name": "Lengteng WLS",
    "category": "wls",
    "state": [
      "Mizoram"
    ],
    "area_km2": 60,
    "centroid_lat": 23.8118,
    "centroid_lng": 93.2527,
    "hasBoundary": true
  },
  {
    "id": "ws_limber_wls",
    "name": "Limber WLS",
    "category": "wls",
    "state": [
      "Jammu & Kashmir"
    ],
    "area_km2": 21.8,
    "centroid_lat": 34.1884,
    "centroid_lng": 74.1628,
    "hasBoundary": true
  },
  {
    "id": "ws_lippa_asrang_wls",
    "name": "Lippa Asrang WLS",
    "category": "wls",
    "state": [
      "Himachal Pradesh"
    ],
    "area_km2": 31,
    "centroid_lat": 31.6262,
    "centroid_lng": 78.2841,
    "hasBoundary": true
  },
  {
    "id": "ws_lohabarrack_saltwater_crocodile_wls",
    "name": "Lohabarrack (Saltwater Crocodile) WLS",
    "category": "wls",
    "state": [
      "Andaman & Nicobar Islands"
    ],
    "area_km2": 22.2,
    "centroid_lat": 11.5897,
    "centroid_lng": 92.5938,
    "hasBoundary": true
  },
  {
    "id": "ws_lonar_wls",
    "name": "Lonar WLS",
    "category": "wls",
    "state": [
      "Maharashtra"
    ],
    "area_km2": 1.2,
    "centroid_lat": 19.9758,
    "centroid_lng": 76.5094,
    "hasBoundary": true
  },
  {
    "id": "ws_lothian_island_wls",
    "name": "Lothian Island WLS",
    "category": "wls",
    "state": [
      "West Bengal"
    ],
    "area_km2": 38,
    "centroid_lat": 21.6585,
    "centroid_lng": 88.323,
    "hasBoundary": true
  },
  {
    "id": "ws_madei_wls",
    "name": "Madei WLS",
    "category": "wls",
    "state": [
      "Goa"
    ],
    "area_km2": 208.5,
    "centroid_lat": 15.5992,
    "centroid_lng": 74.1926,
    "hasBoundary": true
  },
  {
    "id": "ws_maenam_wls",
    "name": "Maenam WLS",
    "category": "wls",
    "state": [
      "Sikkim"
    ],
    "area_km2": 35.3,
    "centroid_lat": 27.3651,
    "centroid_lng": 88.3914,
    "hasBoundary": true
  },
  {
    "id": "ws_mahananda_wls",
    "name": "Mahananda WLS",
    "category": "wls",
    "state": [
      "West Bengal"
    ],
    "area_km2": 158,
    "centroid_lat": 26.8482,
    "centroid_lng": 88.3814,
    "hasBoundary": true
  },
  {
    "id": "ws_mahauaduar_wls",
    "name": "Mahauaduar WLS",
    "category": "wls",
    "state": [
      "Jharkhand"
    ],
    "area_km2": 63.3,
    "centroid_lat": 23.4752,
    "centroid_lng": 84.0621,
    "hasBoundary": true
  },
  {
    "id": "ws_mahavir_swami_wls",
    "name": "Mahavir Swami WLS",
    "category": "wls",
    "state": [
      "Uttar Pradesh"
    ],
    "area_km2": 5.4,
    "centroid_lat": 24.5096,
    "centroid_lng": 78.2557,
    "hasBoundary": true
  },
  {
    "id": "ws_majathal_wls",
    "name": "Majathal WLS",
    "category": "wls",
    "state": [
      "Himachal Pradesh"
    ],
    "area_km2": 30.9,
    "centroid_lat": 31.3066,
    "centroid_lng": 76.962,
    "hasBoundary": true
  },
  {
    "id": "ws_malabar_wls",
    "name": "Malabar WLS",
    "category": "wls",
    "state": [
      "Kerala"
    ],
    "area_km2": 74.2,
    "centroid_lat": 11.5582,
    "centroid_lng": 75.9504,
    "hasBoundary": true
  },
  {
    "id": "ws_malaimahadeswara_wls",
    "name": "Malaimahadeswara WLS",
    "category": "wls",
    "state": [
      "Karnataka"
    ],
    "area_km2": 906.2,
    "centroid_lat": 11.8818,
    "centroid_lng": 77.4514,
    "hasBoundary": true
  },
  {
    "id": "ws_malvan_marine_wls",
    "name": "Malvan Marine WLS",
    "category": "wls",
    "state": [
      "Maharashtra"
    ],
    "area_km2": 29.1,
    "centroid_lat": 16.0151,
    "centroid_lng": 73.496,
    "hasBoundary": true
  },
  {
    "id": "ws_manali_wls",
    "name": "Manali WLS",
    "category": "wls",
    "state": [
      "Himachal Pradesh"
    ],
    "area_km2": 29,
    "centroid_lat": 32.2431,
    "centroid_lng": 77.1295,
    "hasBoundary": true
  },
  {
    "id": "ws_mangalavanam_bird_wls",
    "name": "Mangalavanam Bird WLS",
    "category": "wls",
    "state": [
      "Kerala"
    ],
    "area_km2": 0,
    "centroid_lat": 9.9898,
    "centroid_lng": 76.2752,
    "hasBoundary": true
  },
  {
    "id": "ws_mangrove_island_wls",
    "name": "Mangrove Island WLS",
    "category": "wls",
    "state": [
      "Andaman & Nicobar Islands"
    ],
    "area_km2": 0.4,
    "centroid_lat": 12.2725,
    "centroid_lng": 92.737,
    "hasBoundary": true
  },
  {
    "id": "ws_manjira_wls",
    "name": "Manjira WLS",
    "category": "wls",
    "state": [
      "Telangana"
    ],
    "area_km2": 20,
    "centroid_lat": 17.6786,
    "centroid_lng": 78.0261,
    "hasBoundary": true
  },
  {
    "id": "ws_mansingdeo",
    "name": "Mansingdeo",
    "category": "wls",
    "state": [
      "Maharashtra"
    ],
    "area_km2": 182.6,
    "centroid_lat": 21.5108,
    "centroid_lng": 79.1753,
    "hasBoundary": true
  },
  {
    "id": "ws_marat_longri_wls",
    "name": "Marat Longri WLS",
    "category": "wls",
    "state": [
      "Assam"
    ],
    "area_km2": 451,
    "centroid_lat": 25.9262,
    "centroid_lng": 93.312,
    "hasBoundary": true
  },
  {
    "id": "ws_marine_gulf_of_kachchh_wls",
    "name": "Marine (Gulf of Kachchh) WLS",
    "category": "wls",
    "state": [
      "Gujarat"
    ],
    "area_km2": 295,
    "centroid_lat": 22.4254,
    "centroid_lng": 69.341,
    "hasBoundary": true
  },
  {
    "id": "ws_mask_island_wls",
    "name": "Mask Island WLS",
    "category": "wls",
    "state": [
      "Andaman & Nicobar Islands"
    ],
    "area_km2": 0.8,
    "centroid_lat": 12.7325,
    "centroid_lng": 92.7261,
    "hasBoundary": true
  },
  {
    "id": "ws_mayo_island_wls",
    "name": "Mayo Island WLS",
    "category": "wls",
    "state": [
      "Andaman & Nicobar Islands"
    ],
    "area_km2": 0.1,
    "centroid_lat": 13.4364,
    "centroid_lng": 92.8753,
    "hasBoundary": true
  },
  {
    "id": "ws_mayureswar_supe_wls",
    "name": "Mayureswar Supe WLS",
    "category": "wls",
    "state": [
      "Maharashtra"
    ],
    "area_km2": 5.2,
    "centroid_lat": 18.3503,
    "centroid_lng": 74.3592,
    "hasBoundary": true
  },
  {
    "id": "ws_megamalai",
    "name": "Megamalai",
    "category": "wls",
    "state": [
      "Tamil Nadu"
    ],
    "area_km2": 269.1,
    "centroid_lat": 9.8739,
    "centroid_lng": 77.6108,
    "hasBoundary": true
  },
  {
    "id": "ws_megapode_island_wls",
    "name": "Megapode Island WLS",
    "category": "wls",
    "state": [
      "Andaman & Nicobar Islands"
    ],
    "area_km2": 0.1,
    "centroid_lat": 6.8659,
    "centroid_lng": 93.7883,
    "hasBoundary": true
  },
  {
    "id": "ws_mehao_wls",
    "name": "Mehao WLS",
    "category": "wls",
    "state": [
      "Arunachal Pradesh"
    ],
    "area_km2": 281.5,
    "centroid_lat": 28.1793,
    "centroid_lng": 95.9211,
    "hasBoundary": true
  },
  {
    "id": "ws_melaselvanur_kilaselvanur_wls",
    "name": "Melaselvanur-Kilaselvanur WLS",
    "category": "wls",
    "state": [
      "Tamil Nadu"
    ],
    "area_km2": 5.9,
    "centroid_lat": 9.2206,
    "centroid_lng": 78.5528,
    "hasBoundary": true
  },
  {
    "id": "ws_melghat_wls",
    "name": "Melghat WLS",
    "category": "wls",
    "state": [
      "Maharashtra"
    ],
    "area_km2": 778.8,
    "centroid_lat": 21.5078,
    "centroid_lng": 77.3323,
    "hasBoundary": true
  },
  {
    "id": "ws_melkote_temple_wls",
    "name": "Melkote Temple WLS",
    "category": "wls",
    "state": [
      "Karnataka"
    ],
    "area_km2": 49.8,
    "centroid_lat": 12.6953,
    "centroid_lng": 76.5994,
    "hasBoundary": true
  },
  {
    "id": "ws_mitiyala_wls",
    "name": "Mitiyala WLS",
    "category": "wls",
    "state": [
      "Gujarat"
    ],
    "area_km2": 18.2,
    "centroid_lat": 21.1737,
    "centroid_lng": 71.2573,
    "hasBoundary": true
  },
  {
    "id": "ws_montogemery_island_wls",
    "name": "Montogemery Island WLS",
    "category": "wls",
    "state": [
      "Andaman & Nicobar Islands"
    ],
    "area_km2": 0.2,
    "centroid_lat": 11.9479,
    "centroid_lng": 92.5665,
    "hasBoundary": true
  },
  {
    "id": "ws_mookambika_wls",
    "name": "Mookambika WLS",
    "category": "wls",
    "state": [
      "Karnataka"
    ],
    "area_km2": 370.4,
    "centroid_lat": 13.7797,
    "centroid_lng": 74.861,
    "hasBoundary": true
  },
  {
    "id": "ws_morni_hills_khol_hi_raitan_wls",
    "name": "Morni Hills (Khol-Hi Raitan) WLS",
    "category": "wls",
    "state": [
      "Haryana"
    ],
    "area_km2": 48.8,
    "centroid_lat": 30.7028,
    "centroid_lng": 76.93,
    "hasBoundary": true
  },
  {
    "id": "ws_mount_abu_wls",
    "name": "Mount Abu WLS",
    "category": "wls",
    "state": [
      "Rajasthan"
    ],
    "area_km2": 326.1,
    "centroid_lat": 24.6169,
    "centroid_lng": 72.7449,
    "hasBoundary": true
  },
  {
    "id": "ws_mudumalai_wls",
    "name": "Mudumalai WLS",
    "category": "wls",
    "state": [
      "Tamil Nadu"
    ],
    "area_km2": 217.8,
    "centroid_lat": 11.6053,
    "centroid_lng": 76.5811,
    "hasBoundary": true
  },
  {
    "id": "ws_mundanthurai_wls",
    "name": "Mundanthurai WLS",
    "category": "wls",
    "state": [
      "Tamil Nadu"
    ],
    "area_km2": 582.1,
    "centroid_lat": 8.6716,
    "centroid_lng": 77.3162,
    "hasBoundary": true
  },
  {
    "id": "ws_mussoorie_wls",
    "name": "Mussoorie WLS",
    "category": "wls",
    "state": [
      "Uttarakhand"
    ],
    "area_km2": 10.8,
    "centroid_lat": 30.4855,
    "centroid_lng": 78.0156,
    "hasBoundary": true
  },
  {
    "id": "ws_nagarjunasagar_srisailam_wls",
    "name": "Nagarjunasagar Srisailam WLS",
    "category": "wls",
    "state": [
      "Andhra Pradesh"
    ],
    "area_km2": 2131.3,
    "centroid_lat": 16.1935,
    "centroid_lng": 78.9981,
    "hasBoundary": true
  },
  {
    "id": "ws_nagi_dam_wls",
    "name": "Nagi Dam WLS",
    "category": "wls",
    "state": [
      "Bihar"
    ],
    "area_km2": 1.9,
    "centroid_lat": 24.8164,
    "centroid_lng": 86.412,
    "hasBoundary": true
  },
  {
    "id": "ws_nagzira_wls",
    "name": "Nagzira WLS",
    "category": "wls",
    "state": [
      "Maharashtra"
    ],
    "area_km2": 152.8,
    "centroid_lat": 21.2751,
    "centroid_lng": 80.0832,
    "hasBoundary": true
  },
  {
    "id": "ws_nahar_wls",
    "name": "Nahar WLS",
    "category": "wls",
    "state": [
      "Haryana"
    ],
    "area_km2": 2.1,
    "centroid_lat": 28.4108,
    "centroid_lng": 76.4114,
    "hasBoundary": true
  },